[
  {
    "id": 4010,
    "title": "SkaparcafÃ©",
    "address": "SjÃ¶vikskajen 36â€“42",
    "lat": 59.3065702,
    "lon": 18.0338796
  },
  {
    "id": 4290,
    "title": "Tipspromenad",
    "address": "Bolindersplan 1",
    "lat": 59.32915380000001,
    "lon": 18.0523313
  },
  {
    "id": 4295,
    "title": "Invigningen av Pride House ",
    "address": "Clarion Hotel Sign, Ã–stra JÃ¤rnvÃ¤gsgatan 35, 111 20 Stockholm",
    "lat": 59.33475759999999,
    "lon": 18.0531934
  },
  {
    "id": 4281,
    "title": "Filmvisning: Queendom",
    "address": "Bolindersplan 1",
    "lat": 59.32915380000001,
    "lon": 18.0523313
  },
  {
    "id": 4085,
    "title": "KonstnÃ¤r Alexandra JÃ¶raas Skoogh",
    "address": "Clarion Hotel Sign, Ã–stra JÃ¤rnvÃ¤gsgatan 35, 111 20 Stockholm",
    "lat": 59.33475759999999,
    "lon": 18.0531934
  },
  {
    "id": 4083,
    "title": "KonstnÃ¤r Christian Haag",
    "address": "Clarion Hotel Sign, Ã–stra JÃ¤rnvÃ¤gsgatan 35, 111 20 Stockholm",
    "lat": 59.33475759999999,
    "lon": 18.0531934
  },
  {
    "id": 4190,
    "title": "KonstnÃ¤r Hannes Enocksson",
    "address": "Clarion Hotel Sign, Ã–stra JÃ¤rnvÃ¤gsgatan 35, 111 20 Stockholm",
    "lat": 59.33475759999999,
    "lon": 18.0531934
  },
  {
    "id": 4084,
    "title": "KonstnÃ¤r Jessica Jansson",
    "address": "Clarion Hotel Sign, Ã–stra JÃ¤rnvÃ¤gsgatan 35, 111 20 Stockholm",
    "lat": 59.33475759999999,
    "lon": 18.0531934
  },
  {
    "id": 4301,
    "title": "KonstnÃ¤r Karin Barowiak",
    "address": "Clarion Hotel Sign, Ã–stra JÃ¤rnvÃ¤gsgatan 35, 111 20 Stockholm",
    "lat": 59.33475759999999,
    "lon": 18.0531934
  },
  {
    "id": 4086,
    "title": "KonstnÃ¤r Nea Ringdahl",
    "address": "Clarion Hotel Sign, Ã–stra JÃ¤rnvÃ¤gsgatan 35, 111 20 Stockholm",
    "lat": 59.33475759999999,
    "lon": 18.0531934
  },
  {
    "id": 4082,
    "title": "KonstnÃ¤r Otto Hargne",
    "address": "Clarion Hotel Sign, Ã–stra JÃ¤rnvÃ¤gsgatan 35, 111 20 Stockholm",
    "lat": 59.33475759999999,
    "lon": 18.0531934
  },
  {
    "id": 4300,
    "title": "KonstnÃ¤r Pirjo Palonen",
    "address": "Clarion Hotel Sign, Ã–stra JÃ¤rnvÃ¤gsgatan 35, 111 20 Stockholm",
    "lat": 59.33475759999999,
    "lon": 18.0531934
  },
  {
    "id": 3998,
    "title": "KonstnÃ¤r: Lina BjÃ¶rkman",
    "address": "Clarion Hotel Sign, Ã–stra JÃ¤rnvÃ¤gsgatan 35, 111 20 Stockholm",
    "lat": 59.33475759999999,
    "lon": 18.0531934
  },
  {
    "id": 3995,
    "title": "KonstnÃ¤r: Nilla Wikberg",
    "address": "Clarion Hotel Sign, Ã–stra JÃ¤rnvÃ¤gsgatan 35, 111 20 Stockholm",
    "lat": 59.33475759999999,
    "lon": 18.0531934
  },
  {
    "id": 4243,
    "title": "Pride Fair - Marknad ",
    "address": "Clarion Hotel Sign, Ã–stra JÃ¤rnvÃ¤gsgatan 35, 111 20 Stockholm",
    "lat": 59.33475759999999,
    "lon": 18.0531934
  },
  {
    "id": 4006,
    "title": "ðŸŒˆ Pride Youth pÃ¥ House! ðŸŒˆ",
    "address": "Clarion Hotel Sign, Ã–stra JÃ¤rnvÃ¤gsgatan 35, 111 20 Stockholm",
    "lat": 59.33475759999999,
    "lon": 18.0531934
  },
  {
    "id": 4001,
    "title": "Dropin pÃ¥ StaDemonia Tattoo Stockholm",
    "address": "Slipgatan 9",
    "lat": 59.3173973,
    "lon": 18.0278023
  },
  {
    "id": 4262,
    "title": "For the Love of Kink",
    "address": "Slipgatan 9",
    "lat": 59.3173973,
    "lon": 18.0278023
  },
  {
    "id": 4189,
    "title": "For the Love of Kink",
    "address": "Slipgatan 9",
    "lat": 59.3173973,
    "lon": 18.0278023
  },
  {
    "id": 4055,
    "title": "En Queer historia - historien som inte skulle berÃ¤ttas",
    "address": "Clarion Hotel Sign, Ã–stra JÃ¤rnvÃ¤gsgatan 35, 111 20 Stockholm",
    "lat": 59.33475759999999,
    "lon": 18.0531934
  },
  {
    "id": 4198,
    "title": "How are sexual identity and mental health changing in Stockholm? What does the data say?",
    "address": "Clarion Hotel Sign, Ã–stra JÃ¤rnvÃ¤gsgatan 35, 111 20 Stockholm",
    "lat": 59.33475759999999,
    "lon": 18.0531934
  },
  {
    "id": 4093,
    "title": "Nyckeln till flersamhet",
    "address": "Clarion Hotel Sign, Ã–stra JÃ¤rnvÃ¤gsgatan 35, 111 20 Stockholm",
    "lat": 59.33475759999999,
    "lon": 18.0531934
  },
  {
    "id": 4156,
    "title": "Hbtqi i grundskolan",
    "address": "Clarion Hotel Sign, Ã–stra JÃ¤rnvÃ¤gsgatan 35, 111 20 Stockholm",
    "lat": 59.33475759999999,
    "lon": 18.0531934
  },
  {
    "id": 4230,
    "title": "Hur kan vi bygga framtidens Ã¤ldrevÃ¥rd fÃ¶r hbtqi+ personer?",
    "address": "Clarion Hotel Sign, Ã–stra JÃ¤rnvÃ¤gsgatan 35, 111 20 Stockholm",
    "lat": 59.33475759999999,
    "lon": 18.0531934
  },
  {
    "id": 4302,
    "title": "Min 26-Ã¥riga volontÃ¤r-resa med Pride - Sussie \"Pride-Sussie\" Hedlund",
    "address": "Clarion Hotel Sign, Ã–stra JÃ¤rnvÃ¤gsgatan 35, 111 20 Stockholm",
    "lat": 59.33475759999999,
    "lon": 18.0531934
  },
  {
    "id": 4063,
    "title": "PERKELE! frÃ¥n Finland ",
    "address": "Clarion Hotel Sign, Ã–stra JÃ¤rnvÃ¤gsgatan 35, 111 20 Stockholm",
    "lat": 59.33475759999999,
    "lon": 18.0531934
  },
  {
    "id": 4282,
    "title": "Pridegympa",
    "address": "Bolindersplan 1",
    "lat": 59.32915380000001,
    "lon": 18.0523313
  },
  {
    "id": 4094,
    "title": "Gruppdiskussion om poly, RA och flersamhet",
    "address": "Clarion Hotel Sign, Ã–stra JÃ¤rnvÃ¤gsgatan 35, 111 20 Stockholm",
    "lat": 59.33475759999999,
    "lon": 18.0531934
  },
  {
    "id": 4193,
    "title": "Koda i Python pÃ¥ Pride Youth (mÃ¥ndag)",
    "address": "Clarion Hotel Sign, Ã–stra JÃ¤rnvÃ¤gsgatan 35, 111 20 Stockholm",
    "lat": 59.33475759999999,
    "lon": 18.0531934
  },
  {
    "id": 4222,
    "title": "Wind-down Sunday ",
    "address": " Sergels Torg, 111 57 Stockholm",
    "lat": 59.3323564,
    "lon": 18.0652907
  },
  {
    "id": 4056,
    "title": "Att undervisa i HBTQ-historia pÃ¥ gymnasiet",
    "address": "Clarion Hotel Sign, Ã–stra JÃ¤rnvÃ¤gsgatan 35, 111 20 Stockholm",
    "lat": 59.33475759999999,
    "lon": 18.0531934
  },
  {
    "id": 4178,
    "title": "NÃ¤tverket Stolta fÃ¶rÃ¤ldrar till HBTQI+ barn",
    "address": "Clarion Hotel Sign, Ã–stra JÃ¤rnvÃ¤gsgatan 35, 111 20 Stockholm",
    "lat": 59.33475759999999,
    "lon": 18.0531934
  },
  {
    "id": 4132,
    "title": "Presentation av deltagande fÃ¶reningar i Pride Kinky",
    "address": "Clarion Hotel Sign, Ã–stra JÃ¤rnvÃ¤gsgatan 35, 111 20 Stockholm",
    "lat": 59.33475759999999,
    "lon": 18.0531934
  },
  {
    "id": 4181,
    "title": "How does evacuation of LGBTIQ people from Russia work?",
    "address": "Clarion Hotel Sign, Ã–stra JÃ¤rnvÃ¤gsgatan 35, 111 20 Stockholm",
    "lat": 59.33475759999999,
    "lon": 18.0531934
  },
  {
    "id": 4255,
    "title": "Hur ser HBTQI-asylsÃ¶kandes situation ut i Sverige, tre Ã¥r in i TidÃ¶avtalets tid?",
    "address": "Clarion Hotel Sign, Ã–stra JÃ¤rnvÃ¤gsgatan 35, 111 20 Stockholm",
    "lat": 59.33475759999999,
    "lon": 18.0531934
  },
  {
    "id": 4232,
    "title": "LGBTQI-sports, in Stockholm, in Sweden and the world",
    "address": "Clarion Hotel Sign, Ã–stra JÃ¤rnvÃ¤gsgatan 35, 111 20 Stockholm",
    "lat": 59.33475759999999,
    "lon": 18.0531934
  },
  {
    "id": 4124,
    "title": "Rep med intentioner",
    "address": "Clarion Hotel Sign, Ã–stra JÃ¤rnvÃ¤gsgatan 35, 111 20 Stockholm",
    "lat": 59.33475759999999,
    "lon": 18.0531934
  },
  {
    "id": 4070,
    "title": "ManuslÃ¤sning av queer lÃ¥ngfilm: Klipporna Vid Havet",
    "address": "Clarion Hotel Sign, Ã–stra JÃ¤rnvÃ¤gsgatan 35, 111 20 Stockholm",
    "lat": 59.33475759999999,
    "lon": 18.0531934
  },
  {
    "id": 4146,
    "title": " BDSM ABC",
    "address": "Clarion Hotel Sign, Ã–stra JÃ¤rnvÃ¤gsgatan 35, 111 20 Stockholm",
    "lat": 59.33475759999999,
    "lon": 18.0531934
  },
  {
    "id": 4072,
    "title": "Att arbeta med unga transpersoner och transkultur - lÃ¤rdomar frÃ¥n projektet BlÃ¥haj",
    "address": "Clarion Hotel Sign, Ã–stra JÃ¤rnvÃ¤gsgatan 35, 111 20 Stockholm",
    "lat": 59.33475759999999,
    "lon": 18.0531934
  },
  {
    "id": 4005,
    "title": "Campaign for Nordic LGBT Monuments - LGBT refugees in the Nordic Zone",
    "address": "Clarion Hotel Sign, Ã–stra JÃ¤rnvÃ¤gsgatan 35, 111 20 Stockholm",
    "lat": 59.33475759999999,
    "lon": 18.0531934
  },
  {
    "id": 4096,
    "title": "Polyfika",
    "address": "Kungsgatan 55",
    "lat": 59.3341333,
    "lon": 18.0586468
  },
  {
    "id": 4089,
    "title": "FÃ¶rspelet ",
    "address": "Barnhusgatan 20, 111 23 Stockholm",
    "lat": 59.3355174,
    "lon": 18.0537169
  },
  {
    "id": 4110,
    "title": "I BlÃ¥mÃ¥larens fotspÃ¥r - En skymningsvandring i EugÃ¨ne Janssons Stockholm - Pridespecial",
    "address": "Mariatorget",
    "lat": 59.3181392,
    "lon": 18.0622887
  },
  {
    "id": 4010,
    "title": "SkaparcafÃ©",
    "address": "SjÃ¶vikskajen 36â€“42",
    "lat": 59.3065702,
    "lon": 18.0338796
  },
  {
    "id": 4290,
    "title": "Tipspromenad",
    "address": "Bolindersplan 1",
    "lat": 59.32915380000001,
    "lon": 18.0523313
  },
  {
    "id": 4283,
    "title": "Filmvisning: Bland bÃ¶gar och lesbiska i New York",
    "address": "Bolindersplan 1",
    "lat": 59.32915380000001,
    "lon": 18.0523313
  },
  {
    "id": 4154,
    "title": "Pride pÃ¥ SjÃ¶historiska",
    "address": ""
  },
  {
    "id": 4032,
    "title": "Att vara nÃ¤rstÃ¥ende - ur ett kuratorsperspektiv",
    "address": "Clarion Hotel Sign, Ã–stra JÃ¤rnvÃ¤gsgatan 35, 111 20 Stockholm",
    "lat": 59.33475759999999,
    "lon": 18.0531934
  },
  {
    "id": 4207,
    "title": "FrÃ¥n tanke till handling - SÃ¥ bygger vi queera rum med folkbildning",
    "address": "Clarion Hotel Sign, Ã–stra JÃ¤rnvÃ¤gsgatan 35, 111 20 Stockholm",
    "lat": 59.33475759999999,
    "lon": 18.0531934
  },
  {
    "id": 4119,
    "title": "Njutning bortom neuronormen",
    "address": "Clarion Hotel Sign, Ã–stra JÃ¤rnvÃ¤gsgatan 35, 111 20 Stockholm",
    "lat": 59.33475759999999,
    "lon": 18.0531934
  },
  {
    "id": 4106,
    "title": "Transfobiska vindar - hur ser hotet ut och hur gÃ¶r vi motstÃ¥nd?",
    "address": "Clarion Hotel Sign, Ã–stra JÃ¤rnvÃ¤gsgatan 35, 111 20 Stockholm",
    "lat": 59.33475759999999,
    "lon": 18.0531934
  },
  {
    "id": 4026,
    "title": "Voices from the margins (the lived realities of trans refugees & asylum seekers)",
    "address": "Clarion Hotel Sign, Ã–stra JÃ¤rnvÃ¤gsgatan 35, 111 20 Stockholm",
    "lat": 59.33475759999999,
    "lon": 18.0531934
  },
  {
    "id": 4085,
    "title": "KonstnÃ¤r Alexandra JÃ¶raas Skoogh",
    "address": "Clarion Hotel Sign, Ã–stra JÃ¤rnvÃ¤gsgatan 35, 111 20 Stockholm",
    "lat": 59.33475759999999,
    "lon": 18.0531934
  },
  {
    "id": 4083,
    "title": "KonstnÃ¤r Christian Haag",
    "address": "Clarion Hotel Sign, Ã–stra JÃ¤rnvÃ¤gsgatan 35, 111 20 Stockholm",
    "lat": 59.33475759999999,
    "lon": 18.0531934
  },
  {
    "id": 4190,
    "title": "KonstnÃ¤r Hannes Enocksson",
    "address": "Clarion Hotel Sign, Ã–stra JÃ¤rnvÃ¤gsgatan 35, 111 20 Stockholm",
    "lat": 59.33475759999999,
    "lon": 18.0531934
  },
  {
    "id": 4084,
    "title": "KonstnÃ¤r Jessica Jansson",
    "address": "Clarion Hotel Sign, Ã–stra JÃ¤rnvÃ¤gsgatan 35, 111 20 Stockholm",
    "lat": 59.33475759999999,
    "lon": 18.0531934
  },
  {
    "id": 4301,
    "title": "KonstnÃ¤r Karin Barowiak",
    "address": "Clarion Hotel Sign, Ã–stra JÃ¤rnvÃ¤gsgatan 35, 111 20 Stockholm",
    "lat": 59.33475759999999,
    "lon": 18.0531934
  },
  {
    "id": 4086,
    "title": "KonstnÃ¤r Nea Ringdahl",
    "address": "Clarion Hotel Sign, Ã–stra JÃ¤rnvÃ¤gsgatan 35, 111 20 Stockholm",
    "lat": 59.33475759999999,
    "lon": 18.0531934
  },
  {
    "id": 4082,
    "title": "KonstnÃ¤r Otto Hargne",
    "address": "Clarion Hotel Sign, Ã–stra JÃ¤rnvÃ¤gsgatan 35, 111 20 Stockholm",
    "lat": 59.33475759999999,
    "lon": 18.0531934
  },
  {
    "id": 4300,
    "title": "KonstnÃ¤r Pirjo Palonen",
    "address": "Clarion Hotel Sign, Ã–stra JÃ¤rnvÃ¤gsgatan 35, 111 20 Stockholm",
    "lat": 59.33475759999999,
    "lon": 18.0531934
  },
  {
    "id": 3998,
    "title": "KonstnÃ¤r: Lina BjÃ¶rkman",
    "address": "Clarion Hotel Sign, Ã–stra JÃ¤rnvÃ¤gsgatan 35, 111 20 Stockholm",
    "lat": 59.33475759999999,
    "lon": 18.0531934
  },
  {
    "id": 3995,
    "title": "KonstnÃ¤r: Nilla Wikberg",
    "address": "Clarion Hotel Sign, Ã–stra JÃ¤rnvÃ¤gsgatan 35, 111 20 Stockholm",
    "lat": 59.33475759999999,
    "lon": 18.0531934
  },
  {
    "id": 4243,
    "title": "Pride Fair - Marknad ",
    "address": "Clarion Hotel Sign, Ã–stra JÃ¤rnvÃ¤gsgatan 35, 111 20 Stockholm",
    "lat": 59.33475759999999,
    "lon": 18.0531934
  },
  {
    "id": 4006,
    "title": "ðŸŒˆ Pride Youth pÃ¥ House! ðŸŒˆ",
    "address": "Clarion Hotel Sign, Ã–stra JÃ¤rnvÃ¤gsgatan 35, 111 20 Stockholm",
    "lat": 59.33475759999999,
    "lon": 18.0531934
  },
  {
    "id": 4001,
    "title": "Dropin pÃ¥ StaDemonia Tattoo Stockholm",
    "address": "Slipgatan 9",
    "lat": 59.3173973,
    "lon": 18.0278023
  },
  {
    "id": 4262,
    "title": "For the Love of Kink",
    "address": "Slipgatan 9",
    "lat": 59.3173973,
    "lon": 18.0278023
  },
  {
    "id": 4189,
    "title": "For the Love of Kink",
    "address": "Slipgatan 9",
    "lat": 59.3173973,
    "lon": 18.0278023
  },
  {
    "id": 4240,
    "title": "UtstÃ¤llning: I utsÃ¶kt sÃ¤llskap",
    "address": "Hamngatan 4",
    "lat": 59.33324139999999,
    "lon": 18.0744841
  },
  {
    "id": 4067,
    "title": " Sexual orientation in the asylum process",
    "address": "Clarion Hotel Sign, Ã–stra JÃ¤rnvÃ¤gsgatan 35, 111 20 Stockholm",
    "lat": 59.33475759999999,
    "lon": 18.0531934
  },
  {
    "id": 4264,
    "title": "FrÃ¥n dassboken till deckare - Stockholms queera mÃ¶tesplatser vid sekelskiftet 1900",
    "address": "Clarion Hotel Sign, Ã–stra JÃ¤rnvÃ¤gsgatan 35, 111 20 Stockholm",
    "lat": 59.33475759999999,
    "lon": 18.0531934
  },
  {
    "id": 4105,
    "title": "Hbtqi-politik i opposition med ett Ã¥r till valet - vad gÃ¶r vi nu?",
    "address": "Clarion Hotel Sign, Ã–stra JÃ¤rnvÃ¤gsgatan 35, 111 20 Stockholm",
    "lat": 59.33475759999999,
    "lon": 18.0531934
  },
  {
    "id": 4088,
    "title": "Sex- och kÃ¤rleksnormer ur asexuellt och aromantiskt perspektiv",
    "address": "Clarion Hotel Sign, Ã–stra JÃ¤rnvÃ¤gsgatan 35, 111 20 Stockholm",
    "lat": 59.33475759999999,
    "lon": 18.0531934
  },
  {
    "id": 4284,
    "title": "Lina Ploug frÃ¥n Stockholms stad. Tal om HBTQ-frÃ¥gor",
    "address": "Bolindersplan 1",
    "lat": 59.32915380000001,
    "lon": 18.0523313
  },
  {
    "id": 4029,
    "title": "Din rÃ¤tt att slippa trakasserier och sexuella trakasserier pÃ¥ jobbet och hur vi kan arbeta fÃ¶rebyggande och gripa in ",
    "address": "Clarion Hotel Sign, Ã–stra JÃ¤rnvÃ¤gsgatan 35, 111 20 Stockholm",
    "lat": 59.33475759999999,
    "lon": 18.0531934
  },
  {
    "id": 4050,
    "title": "Ny kÃ¶nstillhÃ¶righetslag - hur blev det? ",
    "address": "Clarion Hotel Sign, Ã–stra JÃ¤rnvÃ¤gsgatan 35, 111 20 Stockholm",
    "lat": 59.33475759999999,
    "lon": 18.0531934
  },
  {
    "id": 4285,
    "title": "Lee Christiernsson",
    "address": "Bolindersplan 1",
    "lat": 59.32915380000001,
    "lon": 18.0523313
  },
  {
    "id": 4194,
    "title": "Koda i Python pÃ¥ Pride Youth (tisdag)",
    "address": "Clarion Hotel Sign, Ã–stra JÃ¤rnvÃ¤gsgatan 35, 111 20 Stockholm",
    "lat": 59.33475759999999,
    "lon": 18.0531934
  },
  {
    "id": 4154,
    "title": "Pride pÃ¥ SjÃ¶historiska",
    "address": ""
  },
  {
    "id": 4008,
    "title": "Gustaf III och homofobin",
    "address": "Clarion Hotel Sign, Ã–stra JÃ¤rnvÃ¤gsgatan 35, 111 20 Stockholm",
    "lat": 59.33475759999999,
    "lon": 18.0531934
  },
  {
    "id": 4134,
    "title": "How to pick up a kinky guy?",
    "address": "Clarion Hotel Sign, Ã–stra JÃ¤rnvÃ¤gsgatan 35, 111 20 Stockholm",
    "lat": 59.33475759999999,
    "lon": 18.0531934
  },
  {
    "id": 4192,
    "title": "Radikalt samexistera, Hannes Enocksson",
    "address": "Clarion Hotel Sign, Ã–stra JÃ¤rnvÃ¤gsgatan 35, 111 20 Stockholm",
    "lat": 59.33475759999999,
    "lon": 18.0531934
  },
  {
    "id": 4091,
    "title": "Responsible AI for an Inclusive Future â€“ Accenture",
    "address": "Clarion Hotel Sign, Ã–stra JÃ¤rnvÃ¤gsgatan 35, 111 20 Stockholm",
    "lat": 59.33475759999999,
    "lon": 18.0531934
  },
  {
    "id": 4271,
    "title": "SamkÃ¶nade begÃ¤r och sexuella mÃ¶tesplatser i Strindbergs samtid",
    "address": "Drottninggatan 85",
    "lat": 59.33848769999999,
    "lon": 18.0564901
  },
  {
    "id": 4154,
    "title": "Pride pÃ¥ SjÃ¶historiska",
    "address": ""
  },
  {
    "id": 4104,
    "title": "FÃ¤ngelser, elitidrott, toaletter - vad handlar hatet mot transpersoner egentligen om? ",
    "address": "Clarion Hotel Sign, Ã–stra JÃ¤rnvÃ¤gsgatan 35, 111 20 Stockholm",
    "lat": 59.33475759999999,
    "lon": 18.0531934
  },
  {
    "id": 4242,
    "title": "Stadsvandring: Klotter och queera mÃ¶tesplatser",
    "address": "Hamngatan 4",
    "lat": 59.33324139999999,
    "lon": 18.0744841
  },
  {
    "id": 4011,
    "title": "Bordssamtal om queer mystik",
    "address": "SjÃ¶vikskajen 36â€“42",
    "lat": 59.3065702,
    "lon": 18.0338796
  },
  {
    "id": 4229,
    "title": "Queera Stockholm â€“ stadsvandra med Stadsmuseet",
    "address": "SÃ¶dra Blasieholmshamnen 2, mot Skeppsholmsbron",
    "lat": 59.3273443,
    "lon": 18.079116
  },
  {
    "id": 4075,
    "title": "Nelly & Nadine - en osannolik kÃ¤rlekshistoria i RavensbrÃ¼cks koncentrationslÃ¤ger",
    "address": "Clarion Hotel Sign, Ã–stra JÃ¤rnvÃ¤gsgatan 35, 111 20 Stockholm",
    "lat": 59.33475759999999,
    "lon": 18.0531934
  },
  {
    "id": 4040,
    "title": "Sex, lust och kommunikation fÃ¶r transpersoner        ",
    "address": "Clarion Hotel Sign, Ã–stra JÃ¤rnvÃ¤gsgatan 35, 111 20 Stockholm",
    "lat": 59.33475759999999,
    "lon": 18.0531934
  },
  {
    "id": 4304,
    "title": "QueerBachata",
    "address": "Clarion Hotel Sign, Ã–stra JÃ¤rnvÃ¤gsgatan 35, 111 20 Stockholm",
    "lat": 59.33475759999999,
    "lon": 18.0531934
  },
  {
    "id": 4202,
    "title": "RegnbÃ¥gsbaren med Stockholms BrÃ¤nneri",
    "address": "HerserudsvÃ¤gen 22, LidingÃ¶",
    "lat": 59.3600557,
    "lon": 18.1205675
  },
  {
    "id": 4214,
    "title": "Queer Manga Talk & Quiz ",
    "address": " Sergels Torg, 111 57 Stockholm",
    "lat": 59.3323564,
    "lon": 18.0652907
  },
  {
    "id": 4089,
    "title": "FÃ¶rspelet ",
    "address": "Barnhusgatan 20, 111 23 Stockholm",
    "lat": 59.3355174,
    "lon": 18.0537169
  },
  {
    "id": 4229,
    "title": "Queera Stockholm â€“ stadsvandra med Stadsmuseet",
    "address": "SÃ¶dra Blasieholmshamnen 2, mot Skeppsholmsbron",
    "lat": 59.3273443,
    "lon": 18.079116
  },
  {
    "id": 4016,
    "title": "LovsÃ¥ng under RegnbÃ¥gen",
    "address": "Kungstensgatan 17",
    "lat": 59.34249209999999,
    "lon": 18.063306
  },
  {
    "id": 4159,
    "title": "A PLACE FOR US - En Pridekonsert",
    "address": "Karlaplan 4",
    "lat": 59.337071,
    "lon": 18.088904
  },
  {
    "id": 4208,
    "title": "Allt du skulle vilja veta om transâ€¦ men varit fÃ¶r skraj att frÃ¥ga om",
    "address": "Bondegatan 1",
    "lat": 59.3124426,
    "lon": 18.0747467
  },
  {
    "id": 4203,
    "title": "Breakfast & Art in the Sculpture Park",
    "address": "HerserudsvÃ¤gen 22, LidingÃ¶",
    "lat": 59.3600557,
    "lon": 18.1205675
  },
  {
    "id": 4010,
    "title": "SkaparcafÃ©",
    "address": "SjÃ¶vikskajen 36â€“42",
    "lat": 59.3065702,
    "lon": 18.0338796
  },
  {
    "id": 4057,
    "title": "Ã–ppen fÃ¶rskola",
    "address": "HÃ¶galids kyrkvÃ¤g 15",
    "lat": 59.3171974,
    "lon": 18.0369225
  },
  {
    "id": 4290,
    "title": "Tipspromenad",
    "address": "Bolindersplan 1",
    "lat": 59.32915380000001,
    "lon": 18.0523313
  },
  {
    "id": 4154,
    "title": "Pride pÃ¥ SjÃ¶historiska",
    "address": ""
  },
  {
    "id": 4254,
    "title": "FrÃ¥n insatt till utsatt",
    "address": "Clarion Hotel Sign, Ã–stra JÃ¤rnvÃ¤gsgatan 35, 111 20 Stockholm",
    "lat": 59.33475759999999,
    "lon": 18.0531934
  },
  {
    "id": 4238,
    "title": "Queer i Orten",
    "address": "Clarion Hotel Sign, Ã–stra JÃ¤rnvÃ¤gsgatan 35, 111 20 Stockholm",
    "lat": 59.33475759999999,
    "lon": 18.0531934
  },
  {
    "id": 4115,
    "title": "Quiz med RFSU Stockholm",
    "address": "Clarion Hotel Sign, Ã–stra JÃ¤rnvÃ¤gsgatan 35, 111 20 Stockholm",
    "lat": 59.33475759999999,
    "lon": 18.0531934
  },
  {
    "id": 4161,
    "title": "Sexprat med Sandra och Sofia",
    "address": "Clarion Hotel Sign, Ã–stra JÃ¤rnvÃ¤gsgatan 35, 111 20 Stockholm",
    "lat": 59.33475759999999,
    "lon": 18.0531934
  },
  {
    "id": 4158,
    "title": "SÃ¥ skapar du en inkluderande arbetsplats",
    "address": "Clarion Hotel Sign, Ã–stra JÃ¤rnvÃ¤gsgatan 35, 111 20 Stockholm",
    "lat": 59.33475759999999,
    "lon": 18.0531934
  },
  {
    "id": 4071,
    "title": "TranshÃ¤lsa â€“ vad bidrar till vÃ¤lmÃ¥ende fÃ¶r transpersoner?",
    "address": "Clarion Hotel Sign, Ã–stra JÃ¤rnvÃ¤gsgatan 35, 111 20 Stockholm",
    "lat": 59.33475759999999,
    "lon": 18.0531934
  },
  {
    "id": 4007,
    "title": "Kunglig Queerhistoria / Royal Queer History",
    "address": "Slottsbacken 1",
    "lat": 59.3256689,
    "lon": 18.0714858
  },
  {
    "id": 4286,
    "title": "Musikquiz",
    "address": "Bolindersplan 1",
    "lat": 59.32915380000001,
    "lon": 18.0523313
  },
  {
    "id": 4085,
    "title": "KonstnÃ¤r Alexandra JÃ¶raas Skoogh",
    "address": "Clarion Hotel Sign, Ã–stra JÃ¤rnvÃ¤gsgatan 35, 111 20 Stockholm",
    "lat": 59.33475759999999,
    "lon": 18.0531934
  },
  {
    "id": 4083,
    "title": "KonstnÃ¤r Christian Haag",
    "address": "Clarion Hotel Sign, Ã–stra JÃ¤rnvÃ¤gsgatan 35, 111 20 Stockholm",
    "lat": 59.33475759999999,
    "lon": 18.0531934
  },
  {
    "id": 4190,
    "title": "KonstnÃ¤r Hannes Enocksson",
    "address": "Clarion Hotel Sign, Ã–stra JÃ¤rnvÃ¤gsgatan 35, 111 20 Stockholm",
    "lat": 59.33475759999999,
    "lon": 18.0531934
  },
  {
    "id": 4084,
    "title": "KonstnÃ¤r Jessica Jansson",
    "address": "Clarion Hotel Sign, Ã–stra JÃ¤rnvÃ¤gsgatan 35, 111 20 Stockholm",
    "lat": 59.33475759999999,
    "lon": 18.0531934
  },
  {
    "id": 4301,
    "title": "KonstnÃ¤r Karin Barowiak",
    "address": "Clarion Hotel Sign, Ã–stra JÃ¤rnvÃ¤gsgatan 35, 111 20 Stockholm",
    "lat": 59.33475759999999,
    "lon": 18.0531934
  },
  {
    "id": 4086,
    "title": "KonstnÃ¤r Nea Ringdahl",
    "address": "Clarion Hotel Sign, Ã–stra JÃ¤rnvÃ¤gsgatan 35, 111 20 Stockholm",
    "lat": 59.33475759999999,
    "lon": 18.0531934
  },
  {
    "id": 4082,
    "title": "KonstnÃ¤r Otto Hargne",
    "address": "Clarion Hotel Sign, Ã–stra JÃ¤rnvÃ¤gsgatan 35, 111 20 Stockholm",
    "lat": 59.33475759999999,
    "lon": 18.0531934
  },
  {
    "id": 4300,
    "title": "KonstnÃ¤r Pirjo Palonen",
    "address": "Clarion Hotel Sign, Ã–stra JÃ¤rnvÃ¤gsgatan 35, 111 20 Stockholm",
    "lat": 59.33475759999999,
    "lon": 18.0531934
  },
  {
    "id": 3998,
    "title": "KonstnÃ¤r: Lina BjÃ¶rkman",
    "address": "Clarion Hotel Sign, Ã–stra JÃ¤rnvÃ¤gsgatan 35, 111 20 Stockholm",
    "lat": 59.33475759999999,
    "lon": 18.0531934
  },
  {
    "id": 3995,
    "title": "KonstnÃ¤r: Nilla Wikberg",
    "address": "Clarion Hotel Sign, Ã–stra JÃ¤rnvÃ¤gsgatan 35, 111 20 Stockholm",
    "lat": 59.33475759999999,
    "lon": 18.0531934
  },
  {
    "id": 4243,
    "title": "Pride Fair - Marknad ",
    "address": "Clarion Hotel Sign, Ã–stra JÃ¤rnvÃ¤gsgatan 35, 111 20 Stockholm",
    "lat": 59.33475759999999,
    "lon": 18.0531934
  },
  {
    "id": 4006,
    "title": "ðŸŒˆ Pride Youth pÃ¥ House! ðŸŒˆ",
    "address": "Clarion Hotel Sign, Ã–stra JÃ¤rnvÃ¤gsgatan 35, 111 20 Stockholm",
    "lat": 59.33475759999999,
    "lon": 18.0531934
  },
  {
    "id": 4240,
    "title": "UtstÃ¤llning: I utsÃ¶kt sÃ¤llskap",
    "address": "Hamngatan 4",
    "lat": 59.33324139999999,
    "lon": 18.0744841
  },
  {
    "id": 4090,
    "title": "Att sÃ¶ka och fÃ¥ hjÃ¤lp som vÃ¥ldsutsatt hbtqi-person",
    "address": "Clarion Hotel Sign, Ã–stra JÃ¤rnvÃ¤gsgatan 35, 111 20 Stockholm",
    "lat": 59.33475759999999,
    "lon": 18.0531934
  },
  {
    "id": 4236,
    "title": "Bygga fÃ¶r en queer community",
    "address": "Clarion Hotel Sign, Ã–stra JÃ¤rnvÃ¤gsgatan 35, 111 20 Stockholm",
    "lat": 59.33475759999999,
    "lon": 18.0531934
  },
  {
    "id": 4249,
    "title": "FrÃ¤lst frÃ¥n ondo â€“ ska Sverige fÃ¶rbjuda omvÃ¤ndelsefÃ¶rsÃ¶k eller rÃ¤cker rÃ¥dande lagstiftning?",
    "address": "Clarion Hotel Sign, Ã–stra JÃ¤rnvÃ¤gsgatan 35, 111 20 Stockholm",
    "lat": 59.33475759999999,
    "lon": 18.0531934
  },
  {
    "id": 4233,
    "title": "Hur skyddar du dig pÃ¥ nÃ¤tet â€“ egentligen?",
    "address": "Clarion Hotel Sign, Ã–stra JÃ¤rnvÃ¤gsgatan 35, 111 20 Stockholm",
    "lat": 59.33475759999999,
    "lon": 18.0531934
  },
  {
    "id": 4138,
    "title": "Show and tell: D/s basics",
    "address": "Clarion Hotel Sign, Ã–stra JÃ¤rnvÃ¤gsgatan 35, 111 20 Stockholm",
    "lat": 59.33475759999999,
    "lon": 18.0531934
  },
  {
    "id": 4030,
    "title": "Trans frÃ¥n osynlig tillvaro till stÃ¶rsta hotet mot >valfritt< ",
    "address": "Clarion Hotel Sign, Ã–stra JÃ¤rnvÃ¤gsgatan 35, 111 20 Stockholm",
    "lat": 59.33475759999999,
    "lon": 18.0531934
  },
  {
    "id": 4018,
    "title": "RegnbÃ¥gsmÃ¤ssa med smÃ¥ och stora",
    "address": "Kaplansbacken 1",
    "lat": 59.328763,
    "lon": 18.0486524
  },
  {
    "id": 4266,
    "title": "Lunchbus utan slut (LUS) Miss P ,Leo.B and Miss Starschine",
    "address": "Hornstulls strand 17",
    "lat": 59.315189,
    "lon": 18.0430073
  },
  {
    "id": 4262,
    "title": "For the Love of Kink",
    "address": "Slipgatan 9",
    "lat": 59.3173973,
    "lon": 18.0278023
  },
  {
    "id": 4189,
    "title": "For the Love of Kink",
    "address": "Slipgatan 9",
    "lat": 59.3173973,
    "lon": 18.0278023
  },
  {
    "id": 4000,
    "title": "Pride Flash Dag pÃ¥ StaDemonia Tattoo Stockholm",
    "address": "Slipgatan 9",
    "lat": 59.3173973,
    "lon": 18.0278023
  },
  {
    "id": 4022,
    "title": "RegnbÃ¥gscafÃ©",
    "address": "Kaplansbacken 1",
    "lat": 59.328763,
    "lon": 18.0486524
  },
  {
    "id": 4019,
    "title": "Ã–ppen fÃ¶rskola i Kungsholms kyrka ",
    "address": "Kaplansbacken 1",
    "lat": 59.328763,
    "lon": 18.0486524
  },
  {
    "id": 4244,
    "title": "Hur arbetar kommunerna med unga hbtq+ personers fritid och inflytande? ",
    "address": "Clarion Hotel Sign, Ã–stra JÃ¤rnvÃ¤gsgatan 35, 111 20 Stockholm",
    "lat": 59.33475759999999,
    "lon": 18.0531934
  },
  {
    "id": 4160,
    "title": "Leva i olika vÃ¤rldar",
    "address": "Clarion Hotel Sign, Ã–stra JÃ¤rnvÃ¤gsgatan 35, 111 20 Stockholm",
    "lat": 59.33475759999999,
    "lon": 18.0531934
  },
  {
    "id": 4048,
    "title": "Vad hÃ¤nder med den kÃ¶nsbekrÃ¤ftande vÃ¥rden?",
    "address": "Clarion Hotel Sign, Ã–stra JÃ¤rnvÃ¤gsgatan 35, 111 20 Stockholm",
    "lat": 59.33475759999999,
    "lon": 18.0531934
  },
  {
    "id": 4116,
    "title": "Vill du? - om sex, kommunikation och samtycke",
    "address": "Clarion Hotel Sign, Ã–stra JÃ¤rnvÃ¤gsgatan 35, 111 20 Stockholm",
    "lat": 59.33475759999999,
    "lon": 18.0531934
  },
  {
    "id": 4287,
    "title": "RegnbÃ¥gs-kulturhistoria med Tupilak",
    "address": "Bolindersplan 1",
    "lat": 59.32915380000001,
    "lon": 18.0523313
  },
  {
    "id": 4076,
    "title": "Ã„gande Ã¤r makt â€“ men vem Ã¤ger i kÃ¤rlekens namn?",
    "address": "Clarion Hotel Sign, Ã–stra JÃ¤rnvÃ¤gsgatan 35, 111 20 Stockholm",
    "lat": 59.33475759999999,
    "lon": 18.0531934
  },
  {
    "id": 4195,
    "title": "Koda i Python pÃ¥ Pride House (onsdag)",
    "address": "Clarion Hotel Sign, Ã–stra JÃ¤rnvÃ¤gsgatan 35, 111 20 Stockholm",
    "lat": 59.33475759999999,
    "lon": 18.0531934
  },
  {
    "id": 4007,
    "title": "Kunglig Queerhistoria / Royal Queer History",
    "address": "Slottsbacken 1",
    "lat": 59.3256689,
    "lon": 18.0714858
  },
  {
    "id": 4154,
    "title": "Pride pÃ¥ SjÃ¶historiska",
    "address": ""
  },
  {
    "id": 4098,
    "title": "SPECIALVISNINGAR: HBTQ+-personer under FÃ¶rintelsen ",
    "address": "Torsgatan 19, 113 21 Stockholm",
    "lat": 59.33707889999999,
    "lon": 18.0425254
  },
  {
    "id": 4052,
    "title": "On the front lines of democracy: LGBTQI resistance in Georgia",
    "address": "Clarion Hotel Sign, Ã–stra JÃ¤rnvÃ¤gsgatan 35, 111 20 Stockholm",
    "lat": 59.33475759999999,
    "lon": 18.0531934
  },
  {
    "id": 4135,
    "title": "SLM & LASH/Wish â€“ Ett kÃ¤rleksdrama i 2 akter",
    "address": "Clarion Hotel Sign, Ã–stra JÃ¤rnvÃ¤gsgatan 35, 111 20 Stockholm",
    "lat": 59.33475759999999,
    "lon": 18.0531934
  },
  {
    "id": 4179,
    "title": "Unga Hbtqia+",
    "address": "Clarion Hotel Sign, Ã–stra JÃ¤rnvÃ¤gsgatan 35, 111 20 Stockholm",
    "lat": 59.33475759999999,
    "lon": 18.0531934
  },
  {
    "id": 4237,
    "title": "VarfÃ¶r ska vi bry oss om Kyrkovalet?",
    "address": "Clarion Hotel Sign, Ã–stra JÃ¤rnvÃ¤gsgatan 35, 111 20 Stockholm",
    "lat": 59.33475759999999,
    "lon": 18.0531934
  },
  {
    "id": 4234,
    "title": "CyberStorm & Kodkraft â€“ bli en digital hjÃ¤lte!",
    "address": "Clarion Hotel Sign, Ã–stra JÃ¤rnvÃ¤gsgatan 35, 111 20 Stockholm",
    "lat": 59.33475759999999,
    "lon": 18.0531934
  },
  {
    "id": 4118,
    "title": "Snurra flaskan med RFSU Stockholm",
    "address": "Clarion Hotel Sign, Ã–stra JÃ¤rnvÃ¤gsgatan 35, 111 20 Stockholm",
    "lat": 59.33475759999999,
    "lon": 18.0531934
  },
  {
    "id": 4154,
    "title": "Pride pÃ¥ SjÃ¶historiska",
    "address": ""
  },
  {
    "id": 4113,
    "title": "Kvinnokroppen Ã¤r inte en handelsvara- nej till sexkÃ¶p",
    "address": "Clarion Hotel Sign, Ã–stra JÃ¤rnvÃ¤gsgatan 35, 111 20 Stockholm",
    "lat": 59.33475759999999,
    "lon": 18.0531934
  },
  {
    "id": 4033,
    "title": "Sexperternas RÃ¶vskola",
    "address": "Clarion Hotel Sign, Ã–stra JÃ¤rnvÃ¤gsgatan 35, 111 20 Stockholm",
    "lat": 59.33475759999999,
    "lon": 18.0531934
  },
  {
    "id": 4028,
    "title": "Ã„kta makor - en queer historia",
    "address": "Clarion Hotel Sign, Ã–stra JÃ¤rnvÃ¤gsgatan 35, 111 20 Stockholm",
    "lat": 59.33475759999999,
    "lon": 18.0531934
  },
  {
    "id": 4269,
    "title": "Ã„kta Makor- en queer historia",
    "address": "Norra bantorget",
    "lat": 59.3349205,
    "lon": 18.0545926
  },
  {
    "id": 4020,
    "title": " Var David och Jonatan ett par? ",
    "address": "Kaplansbacken 1",
    "lat": 59.328763,
    "lon": 18.0486524
  },
  {
    "id": 4242,
    "title": "Stadsvandring: Klotter och queera mÃ¶tesplatser",
    "address": "Hamngatan 4",
    "lat": 59.33324139999999,
    "lon": 18.0744841
  },
  {
    "id": 4011,
    "title": "Bordssamtal om queer mystik",
    "address": "SjÃ¶vikskajen 36â€“42",
    "lat": 59.3065702,
    "lon": 18.0338796
  },
  {
    "id": 4229,
    "title": "Queera Stockholm â€“ stadsvandra med Stadsmuseet",
    "address": "SÃ¶dra Blasieholmshamnen 2, mot Skeppsholmsbron",
    "lat": 59.3273443,
    "lon": 18.079116
  },
  {
    "id": 4247,
    "title": "Rendez-Vous LOUD & PROUD",
    "address": "StadsgÃ¥rdsterminalen, 116 45 Stockholm",
    "lat": 59.31941599999999,
    "lon": 18.0775996
  },
  {
    "id": 4025,
    "title": "Building Health Through Belonging: RFSL Stockholm's social spaces",
    "address": "Clarion Hotel Sign, Ã–stra JÃ¤rnvÃ¤gsgatan 35, 111 20 Stockholm",
    "lat": 59.33475759999999,
    "lon": 18.0531934
  },
  {
    "id": 4303,
    "title": "BÃ¶gBachata",
    "address": "Clarion Hotel Sign, Ã–stra JÃ¤rnvÃ¤gsgatan 35, 111 20 Stockholm",
    "lat": 59.33475759999999,
    "lon": 18.0531934
  },
  {
    "id": 4087,
    "title": "Katolik och gay - gÃ¥r det ihop?",
    "address": "Clarion Hotel Sign, Ã–stra JÃ¤rnvÃ¤gsgatan 35, 111 20 Stockholm",
    "lat": 59.33475759999999,
    "lon": 18.0531934
  },
  {
    "id": 4180,
    "title": "Rights for HBTQI+ people in EECA",
    "address": "Clarion Hotel Sign, Ã–stra JÃ¤rnvÃ¤gsgatan 35, 111 20 Stockholm",
    "lat": 59.33475759999999,
    "lon": 18.0531934
  },
  {
    "id": 4216,
    "title": "Queer Filmvisning",
    "address": " Sergels Torg, 111 57 Stockholm",
    "lat": 59.3323564,
    "lon": 18.0652907
  },
  {
    "id": 4202,
    "title": "RegnbÃ¥gsbaren med Stockholms BrÃ¤nneri",
    "address": "HerserudsvÃ¤gen 22, LidingÃ¶",
    "lat": 59.3600557,
    "lon": 18.1205675
  },
  {
    "id": 4002,
    "title": "ðŸŒˆPride Youth i ParkenðŸŒˆ",
    "address": "Ã–stermalms IP, SÃ¶dra FiskartorpsvÃ¤gen 2",
    "lat": 59.3475194,
    "lon": 18.0835005
  },
  {
    "id": 4162,
    "title": "Prova pÃ¥- Rep",
    "address": "Ã–stermalms IP, SÃ¶dra FiskartorpsvÃ¤gen 2",
    "lat": 59.3475194,
    "lon": 18.0835005
  },
  {
    "id": 4231,
    "title": "Smiskskola",
    "address": "Ã–stermalms IP, SÃ¶dra FiskartorpsvÃ¤gen 2",
    "lat": 59.3475194,
    "lon": 18.0835005
  },
  {
    "id": 3992,
    "title": "KonstnÃ¤r Magnus Johansson",
    "address": "Ã–stermalms IP, SÃ¶dra FiskartorpsvÃ¤gen 2",
    "lat": 59.3475194,
    "lon": 18.0835005
  },
  {
    "id": 3994,
    "title": "KonstnÃ¤r Ronja HÃ¥llsten",
    "address": "Ã–stermalms IP, SÃ¶dra FiskartorpsvÃ¤gen 2",
    "lat": 59.3475194,
    "lon": 18.0835005
  },
  {
    "id": 3991,
    "title": "KonstnÃ¤r YlvaMaria Thompson",
    "address": "Ã–stermalms IP, SÃ¶dra FiskartorpsvÃ¤gen 2",
    "lat": 59.3475194,
    "lon": 18.0835005
  },
  {
    "id": 3997,
    "title": "KonstnÃ¤r Emelie Svartenmark",
    "address": "Ã–stermalms IP, SÃ¶dra FiskartorpsvÃ¤gen 2",
    "lat": 59.3475194,
    "lon": 18.0835005
  },
  {
    "id": 4081,
    "title": "KonstnÃ¤r Hanna Wendeler",
    "address": "Ã–stermalms IP, SÃ¶dra FiskartorpsvÃ¤gen 2",
    "lat": 59.3475194,
    "lon": 18.0835005
  },
  {
    "id": 4077,
    "title": "KonstnÃ¤r Jaymie Stellmar-Wright",
    "address": "Ã–stermalms IP, SÃ¶dra FiskartorpsvÃ¤gen 2",
    "lat": 59.3475194,
    "lon": 18.0835005
  },
  {
    "id": 3990,
    "title": "KonstnÃ¤r Jonas Augustsson",
    "address": "Ã–stermalms IP, SÃ¶dra FiskartorpsvÃ¤gen 2",
    "lat": 59.3475194,
    "lon": 18.0835005
  },
  {
    "id": 3996,
    "title": "KonstnÃ¤r Katarina Thomassen",
    "address": "Ã–stermalms IP, SÃ¶dra FiskartorpsvÃ¤gen 2",
    "lat": 59.3475194,
    "lon": 18.0835005
  },
  {
    "id": 4079,
    "title": "KonstnÃ¤r LinnÃ©a Johnsson",
    "address": "Ã–stermalms IP, SÃ¶dra FiskartorpsvÃ¤gen 2",
    "lat": 59.3475194,
    "lon": 18.0835005
  },
  {
    "id": 4080,
    "title": "KonstnÃ¤r Lotta Tamba",
    "address": "Ã–stermalms IP, SÃ¶dra FiskartorpsvÃ¤gen 2",
    "lat": 59.3475194,
    "lon": 18.0835005
  },
  {
    "id": 3988,
    "title": "KonstnÃ¤r Mikael da Silva Eriksson",
    "address": "Ã–stermalms IP, SÃ¶dra FiskartorpsvÃ¤gen 2",
    "lat": 59.3475194,
    "lon": 18.0835005
  },
  {
    "id": 4078,
    "title": "KonstnÃ¤r My Olsson",
    "address": "Ã–stermalms IP, SÃ¶dra FiskartorpsvÃ¤gen 2",
    "lat": 59.3475194,
    "lon": 18.0835005
  },
  {
    "id": 3989,
    "title": "KonstnÃ¤r Phil of Sweden / Filip Lundberg",
    "address": "Ã–stermalms IP, SÃ¶dra FiskartorpsvÃ¤gen 2",
    "lat": 59.3475194,
    "lon": 18.0835005
  },
  {
    "id": 3987,
    "title": "KonstnÃ¤r Richard Klarby",
    "address": "Ã–stermalms IP, SÃ¶dra FiskartorpsvÃ¤gen 2",
    "lat": 59.3475194,
    "lon": 18.0835005
  },
  {
    "id": 4296,
    "title": "Strike a pose â€“ fÃ¥nga din Pride-look!",
    "address": "Ã–stermalms IP, SÃ¶dra FiskartorpsvÃ¤gen 2",
    "lat": 59.3475194,
    "lon": 18.0835005
  },
  {
    "id": 4089,
    "title": "FÃ¶rspelet ",
    "address": "Barnhusgatan 20, 111 23 Stockholm",
    "lat": 59.3355174,
    "lon": 18.0537169
  },
  {
    "id": 4125,
    "title": "Presentation av deltagande fÃ¶reningar i Pride Kinky",
    "address": "Ã–stermalms IP, SÃ¶dra FiskartorpsvÃ¤gen 2",
    "lat": 59.3475194,
    "lon": 18.0835005
  },
  {
    "id": 4097,
    "title": "Kvinnoseparatistisk polypicknick",
    "address": "Drakenbergsparken vid Hornstull",
    "lat": 59.3141725,
    "lon": 18.0387625
  },
  {
    "id": 4184,
    "title": "VÃ¥ra Liv",
    "address": "Ã–stermalms IP, SÃ¶dra FiskartorpsvÃ¤gen 2",
    "lat": 59.3475194,
    "lon": 18.0835005
  },
  {
    "id": 4128,
    "title": "\"LÃ¤derhistoria & SLM, med en internationell utblick\"",
    "address": "Ã–stermalms IP, SÃ¶dra FiskartorpsvÃ¤gen 2",
    "lat": 59.3475194,
    "lon": 18.0835005
  },
  {
    "id": 4060,
    "title": "Klanger och eufori i regnbÃ¥gens fÃ¤rger",
    "address": "KommunalvÃ¤gen 21",
    "lat": 59.2392033,
    "lon": 17.9847378
  },
  {
    "id": 4121,
    "title": "Krobari ",
    "address": "Ã–stermalms IP, SÃ¶dra FiskartorpsvÃ¤gen 2",
    "lat": 59.3475194,
    "lon": 18.0835005
  },
  {
    "id": 4012,
    "title": "Att vara trans i kyrkan",
    "address": "SjÃ¶vikskajen 36â€“42",
    "lat": 59.3065702,
    "lon": 18.0338796
  },
  {
    "id": 4165,
    "title": "Invigningen av Pride Park",
    "address": "Ã–stermalms IP, SÃ¶dra FiskartorpsvÃ¤gen 2",
    "lat": 59.3475194,
    "lon": 18.0835005
  },
  {
    "id": 4126,
    "title": "Dress-code  Fashion-show",
    "address": "Ã–stermalms IP, SÃ¶dra FiskartorpsvÃ¤gen 2",
    "lat": 59.3475194,
    "lon": 18.0835005
  },
  {
    "id": 4150,
    "title": "Needle play  fÃ¶relÃ¤sning",
    "address": "Ã–stermalms IP, SÃ¶dra FiskartorpsvÃ¤gen 2",
    "lat": 59.3475194,
    "lon": 18.0835005
  },
  {
    "id": 4021,
    "title": " Konsert och allsÃ¥ngskvÃ¤ll med dragshowartisten Admira",
    "address": "Kaplansbacken 1",
    "lat": 59.328763,
    "lon": 18.0486524
  },
  {
    "id": 4074,
    "title": "Filmvisning: Vingarne (1916) / Samtal med Gabrielle de Bourg och Emil Ã…kerÃ¶",
    "address": "Greta Garbos vÃ¤g 9, 169 40 Solna",
    "lat": 59.3671325,
    "lon": 17.9819711
  },
  {
    "id": 4123,
    "title": "Rep med intentioner",
    "address": "Ã–stermalms IP, SÃ¶dra FiskartorpsvÃ¤gen 2",
    "lat": 59.3475194,
    "lon": 18.0835005
  },
  {
    "id": 4185,
    "title": "Standup pÃ¥ RegnbÃ¥gsscenen",
    "address": "Ã–stermalms IP, SÃ¶dra FiskartorpsvÃ¤gen 2",
    "lat": 59.3475194,
    "lon": 18.0835005
  },
  {
    "id": 4147,
    "title": " BDSM ABC",
    "address": "Ã–stermalms IP, SÃ¶dra FiskartorpsvÃ¤gen 2",
    "lat": 59.3475194,
    "lon": 18.0835005
  },
  {
    "id": 4167,
    "title": "Programpunkten slÃ¤pps snart",
    "address": "Ã–stermalms IP, SÃ¶dra FiskartorpsvÃ¤gen 2",
    "lat": 59.3475194,
    "lon": 18.0835005
  },
  {
    "id": 4276,
    "title": "FIST Pride @ Patricia",
    "address": "Kajplats 19 SÃ¶dermÃ¤larstrand",
    "lat": 59.32093339999999,
    "lon": 18.0655277
  },
  {
    "id": 4127,
    "title": "â€œPuppy Agilityâ€ ",
    "address": "Ã–stermalms IP, SÃ¶dra FiskartorpsvÃ¤gen 2",
    "lat": 59.3475194,
    "lon": 18.0835005
  },
  {
    "id": 4168,
    "title": "Programpunkten slÃ¤pps snart",
    "address": "Ã–stermalms IP, SÃ¶dra FiskartorpsvÃ¤gen 2",
    "lat": 59.3475194,
    "lon": 18.0835005
  },
  {
    "id": 4187,
    "title": "Silent Disco",
    "address": "Ã–stermalms IP, SÃ¶dra FiskartorpsvÃ¤gen 2",
    "lat": 59.3475194,
    "lon": 18.0835005
  },
  {
    "id": 4017,
    "title": "Nattvardsandakt och queer brunch",
    "address": "Kungstensgatan 17",
    "lat": 59.34249209999999,
    "lon": 18.063306
  },
  {
    "id": 4058,
    "title": "Ã–ppen fÃ¶rskola",
    "address": "HÃ¶galids kyrkvÃ¤g 15",
    "lat": 59.3171974,
    "lon": 18.0369225
  },
  {
    "id": 4290,
    "title": "Tipspromenad",
    "address": "Bolindersplan 1",
    "lat": 59.32915380000001,
    "lon": 18.0523313
  },
  {
    "id": 4154,
    "title": "Pride pÃ¥ SjÃ¶historiska",
    "address": ""
  },
  {
    "id": 4066,
    "title": "Bi- och pansexualitet: utmaningar och mÃ¶jligheter",
    "address": "Clarion Hotel Sign, Ã–stra JÃ¤rnvÃ¤gsgatan 35, 111 20 Stockholm",
    "lat": 59.33475759999999,
    "lon": 18.0531934
  },
  {
    "id": 4210,
    "title": "FolkhÃ¤lsomyndigheten: FrÃ¥n handlingsplan till handling - Tillsammans fÃ¶r hbtqi-personers lika rÃ¤ttigheter och mÃ¶jligheter",
    "address": "Clarion Hotel Sign, Ã–stra JÃ¤rnvÃ¤gsgatan 35, 111 20 Stockholm",
    "lat": 59.33475759999999,
    "lon": 18.0531934
  },
  {
    "id": 4205,
    "title": "HBTQI+ pÃ¥ jobbet ",
    "address": "Clarion Hotel Sign, Ã–stra JÃ¤rnvÃ¤gsgatan 35, 111 20 Stockholm",
    "lat": 59.33475759999999,
    "lon": 18.0531934
  },
  {
    "id": 4004,
    "title": "LGBT History - Nordic and beyond",
    "address": "Clarion Hotel Sign, Ã–stra JÃ¤rnvÃ¤gsgatan 35, 111 20 Stockholm",
    "lat": 59.33475759999999,
    "lon": 18.0531934
  },
  {
    "id": 4235,
    "title": "SÃ¤kra slantar & sÃ¤kra val â€“ experternas tips fÃ¶r en trygg regnbÃ¥gsekonomi",
    "address": "Clarion Hotel Sign, Ã–stra JÃ¤rnvÃ¤gsgatan 35, 111 20 Stockholm",
    "lat": 59.33475759999999,
    "lon": 18.0531934
  },
  {
    "id": 4041,
    "title": "Vad Ã¤r en toxisk relation och hur hanterar vi det inom community?",
    "address": "Clarion Hotel Sign, Ã–stra JÃ¤rnvÃ¤gsgatan 35, 111 20 Stockholm",
    "lat": 59.33475759999999,
    "lon": 18.0531934
  },
  {
    "id": 4007,
    "title": "Kunglig Queerhistoria / Royal Queer History",
    "address": "Slottsbacken 1",
    "lat": 59.3256689,
    "lon": 18.0714858
  },
  {
    "id": 4245,
    "title": "RegnbÃ¥gskÃ¥ren i House",
    "address": "Clarion Hotel Sign, Ã–stra JÃ¤rnvÃ¤gsgatan 35, 111 20 Stockholm",
    "lat": 59.33475759999999,
    "lon": 18.0531934
  },
  {
    "id": 4085,
    "title": "KonstnÃ¤r Alexandra JÃ¶raas Skoogh",
    "address": "Clarion Hotel Sign, Ã–stra JÃ¤rnvÃ¤gsgatan 35, 111 20 Stockholm",
    "lat": 59.33475759999999,
    "lon": 18.0531934
  },
  {
    "id": 4083,
    "title": "KonstnÃ¤r Christian Haag",
    "address": "Clarion Hotel Sign, Ã–stra JÃ¤rnvÃ¤gsgatan 35, 111 20 Stockholm",
    "lat": 59.33475759999999,
    "lon": 18.0531934
  },
  {
    "id": 4190,
    "title": "KonstnÃ¤r Hannes Enocksson",
    "address": "Clarion Hotel Sign, Ã–stra JÃ¤rnvÃ¤gsgatan 35, 111 20 Stockholm",
    "lat": 59.33475759999999,
    "lon": 18.0531934
  },
  {
    "id": 4084,
    "title": "KonstnÃ¤r Jessica Jansson",
    "address": "Clarion Hotel Sign, Ã–stra JÃ¤rnvÃ¤gsgatan 35, 111 20 Stockholm",
    "lat": 59.33475759999999,
    "lon": 18.0531934
  },
  {
    "id": 4301,
    "title": "KonstnÃ¤r Karin Barowiak",
    "address": "Clarion Hotel Sign, Ã–stra JÃ¤rnvÃ¤gsgatan 35, 111 20 Stockholm",
    "lat": 59.33475759999999,
    "lon": 18.0531934
  },
  {
    "id": 4086,
    "title": "KonstnÃ¤r Nea Ringdahl",
    "address": "Clarion Hotel Sign, Ã–stra JÃ¤rnvÃ¤gsgatan 35, 111 20 Stockholm",
    "lat": 59.33475759999999,
    "lon": 18.0531934
  },
  {
    "id": 4082,
    "title": "KonstnÃ¤r Otto Hargne",
    "address": "Clarion Hotel Sign, Ã–stra JÃ¤rnvÃ¤gsgatan 35, 111 20 Stockholm",
    "lat": 59.33475759999999,
    "lon": 18.0531934
  },
  {
    "id": 4300,
    "title": "KonstnÃ¤r Pirjo Palonen",
    "address": "Clarion Hotel Sign, Ã–stra JÃ¤rnvÃ¤gsgatan 35, 111 20 Stockholm",
    "lat": 59.33475759999999,
    "lon": 18.0531934
  },
  {
    "id": 3998,
    "title": "KonstnÃ¤r: Lina BjÃ¶rkman",
    "address": "Clarion Hotel Sign, Ã–stra JÃ¤rnvÃ¤gsgatan 35, 111 20 Stockholm",
    "lat": 59.33475759999999,
    "lon": 18.0531934
  },
  {
    "id": 3995,
    "title": "KonstnÃ¤r: Nilla Wikberg",
    "address": "Clarion Hotel Sign, Ã–stra JÃ¤rnvÃ¤gsgatan 35, 111 20 Stockholm",
    "lat": 59.33475759999999,
    "lon": 18.0531934
  },
  {
    "id": 4243,
    "title": "Pride Fair - Marknad ",
    "address": "Clarion Hotel Sign, Ã–stra JÃ¤rnvÃ¤gsgatan 35, 111 20 Stockholm",
    "lat": 59.33475759999999,
    "lon": 18.0531934
  },
  {
    "id": 4006,
    "title": "ðŸŒˆ Pride Youth pÃ¥ House! ðŸŒˆ",
    "address": "Clarion Hotel Sign, Ã–stra JÃ¤rnvÃ¤gsgatan 35, 111 20 Stockholm",
    "lat": 59.33475759999999,
    "lon": 18.0531934
  },
  {
    "id": 4001,
    "title": "Dropin pÃ¥ StaDemonia Tattoo Stockholm",
    "address": "Slipgatan 9",
    "lat": 59.3173973,
    "lon": 18.0278023
  },
  {
    "id": 4262,
    "title": "For the Love of Kink",
    "address": "Slipgatan 9",
    "lat": 59.3173973,
    "lon": 18.0278023
  },
  {
    "id": 4189,
    "title": "For the Love of Kink",
    "address": "Slipgatan 9",
    "lat": 59.3173973,
    "lon": 18.0278023
  },
  {
    "id": 4240,
    "title": "UtstÃ¤llning: I utsÃ¶kt sÃ¤llskap",
    "address": "Hamngatan 4",
    "lat": 59.33324139999999,
    "lon": 18.0744841
  },
  {
    "id": 4099,
    "title": "Fallgropar att undvika inom familjejuridiken",
    "address": "Clarion Hotel Sign, Ã–stra JÃ¤rnvÃ¤gsgatan 35, 111 20 Stockholm",
    "lat": 59.33475759999999,
    "lon": 18.0531934
  },
  {
    "id": 4100,
    "title": "Hiv och mÃ¤nskliga rÃ¤ttigheter â€“ nu utreds informationsplikten ",
    "address": "Clarion Hotel Sign, Ã–stra JÃ¤rnvÃ¤gsgatan 35, 111 20 Stockholm",
    "lat": 59.33475759999999,
    "lon": 18.0531934
  },
  {
    "id": 4211,
    "title": "KulturrÃ¥det: Fri queer kultur, hbtqi-personers konstnÃ¤rliga frihet i Sverige och globalt",
    "address": "Clarion Hotel Sign, Ã–stra JÃ¤rnvÃ¤gsgatan 35, 111 20 Stockholm",
    "lat": 59.33475759999999,
    "lon": 18.0531934
  },
  {
    "id": 4092,
    "title": "Public Speaking and Storytelling Workshop â€“ Accenture",
    "address": "Clarion Hotel Sign, Ã–stra JÃ¤rnvÃ¤gsgatan 35, 111 20 Stockholm",
    "lat": 59.33475759999999,
    "lon": 18.0531934
  },
  {
    "id": 4157,
    "title": "Queera rÃ¶ster pÃ¥ biblioteken",
    "address": "Clarion Hotel Sign, Ã–stra JÃ¤rnvÃ¤gsgatan 35, 111 20 Stockholm",
    "lat": 59.33475759999999,
    "lon": 18.0531934
  },
  {
    "id": 4073,
    "title": "Transammans seniornÃ¤tverk: Att bygga gemenskap, dela erfarenheter och bryta ensamhet",
    "address": "Clarion Hotel Sign, Ã–stra JÃ¤rnvÃ¤gsgatan 35, 111 20 Stockholm",
    "lat": 59.33475759999999,
    "lon": 18.0531934
  },
  {
    "id": 4010,
    "title": "SkaparcafÃ©",
    "address": "SjÃ¶vikskajen 36â€“42",
    "lat": 59.3065702,
    "lon": 18.0338796
  },
  {
    "id": 4022,
    "title": "RegnbÃ¥gscafÃ©",
    "address": "Kaplansbacken 1",
    "lat": 59.328763,
    "lon": 18.0486524
  },
  {
    "id": 4019,
    "title": "Ã–ppen fÃ¶rskola i Kungsholms kyrka ",
    "address": "Kaplansbacken 1",
    "lat": 59.328763,
    "lon": 18.0486524
  },
  {
    "id": 4225,
    "title": " FrÃ¥n Vita huset till vÃ¤rlden â€“ hur Trumps beslut slÃ¥r mot hbtq-rÃ¤ttigheter",
    "address": "Clarion Hotel Sign, Ã–stra JÃ¤rnvÃ¤gsgatan 35, 111 20 Stockholm",
    "lat": 59.33475759999999,
    "lon": 18.0531934
  },
  {
    "id": 4035,
    "title": "Det queera kulturutbudet: Hur ser det ut idag, vad saknas och vad gÃ¶r man frÃ¥n politiken i Stockholm fÃ¶r att stÃ¶dja kultur av och fÃ¶r HBTQI+-personer?",
    "address": "Clarion Hotel Sign, Ã–stra JÃ¤rnvÃ¤gsgatan 35, 111 20 Stockholm",
    "lat": 59.33475759999999,
    "lon": 18.0531934
  },
  {
    "id": 4044,
    "title": "LGBTQ+ activism in Ukrainian frontline cities",
    "address": "Clarion Hotel Sign, Ã–stra JÃ¤rnvÃ¤gsgatan 35, 111 20 Stockholm",
    "lat": 59.33475759999999,
    "lon": 18.0531934
  },
  {
    "id": 4212,
    "title": "MUCF: Vikten av mÃ¶tesplatser fÃ¶r unga hbtqi-personer",
    "address": "Clarion Hotel Sign, Ã–stra JÃ¤rnvÃ¤gsgatan 35, 111 20 Stockholm",
    "lat": 59.33475759999999,
    "lon": 18.0531934
  },
  {
    "id": 4155,
    "title": "Vikten av att prata om sjÃ¤lvmord - ett samtal mellan Suicide Zero och Transammans ",
    "address": "Clarion Hotel Sign, Ã–stra JÃ¤rnvÃ¤gsgatan 35, 111 20 Stockholm",
    "lat": 59.33475759999999,
    "lon": 18.0531934
  },
  {
    "id": 4196,
    "title": "Koda i Python pÃ¥ Pride Youth (torsdag)",
    "address": "Clarion Hotel Sign, Ã–stra JÃ¤rnvÃ¤gsgatan 35, 111 20 Stockholm",
    "lat": 59.33475759999999,
    "lon": 18.0531934
  },
  {
    "id": 4288,
    "title": "Filmvisning: Carol",
    "address": "Bolindersplan 1",
    "lat": 59.32915380000001,
    "lon": 18.0523313
  },
  {
    "id": 4007,
    "title": "Kunglig Queerhistoria / Royal Queer History",
    "address": "Slottsbacken 1",
    "lat": 59.3256689,
    "lon": 18.0714858
  },
  {
    "id": 4154,
    "title": "Pride pÃ¥ SjÃ¶historiska",
    "address": ""
  },
  {
    "id": 4098,
    "title": "SPECIALVISNINGAR: HBTQ+-personer under FÃ¶rintelsen ",
    "address": "Torsgatan 19, 113 21 Stockholm",
    "lat": 59.33707889999999,
    "lon": 18.0425254
  },
  {
    "id": 4226,
    "title": " Hbtq-ungas ohÃ¤lsa â€“ vad mÃ¥ste vi gÃ¶ra?",
    "address": "Clarion Hotel Sign, Ã–stra JÃ¤rnvÃ¤gsgatan 35, 111 20 Stockholm",
    "lat": 59.33475759999999,
    "lon": 18.0531934
  },
  {
    "id": 4133,
    "title": "\"LÃ¤derhistoria & SLM, med en internationell utblick\"",
    "address": "Clarion Hotel Sign, Ã–stra JÃ¤rnvÃ¤gsgatan 35, 111 20 Stockholm",
    "lat": 59.33475759999999,
    "lon": 18.0531934
  },
  {
    "id": 4259,
    "title": "After Budapest Pride â€“ now what? Progress and challenges on LGBTQI rights in EU and Europe",
    "address": "Clarion Hotel Sign, Ã–stra JÃ¤rnvÃ¤gsgatan 35, 111 20 Stockholm",
    "lat": 59.33475759999999,
    "lon": 18.0531934
  },
  {
    "id": 4049,
    "title": "DEI och svenska fÃ¶retag; Hur lÃ¤tt kan vi pÃ¥verkas av Trump och vad hÃ¤nder med mÃ¥ngfalden nÃ¤r vÃ¤rdegrunden skiftar?",
    "address": "Clarion Hotel Sign, Ã–stra JÃ¤rnvÃ¤gsgatan 35, 111 20 Stockholm",
    "lat": 59.33475759999999,
    "lon": 18.0531934
  },
  {
    "id": 4213,
    "title": "Socialstyrelsen: Den nya kÃ¶nstillhÃ¶righetslagen",
    "address": "Clarion Hotel Sign, Ã–stra JÃ¤rnvÃ¤gsgatan 35, 111 20 Stockholm",
    "lat": 59.33475759999999,
    "lon": 18.0531934
  },
  {
    "id": 4069,
    "title": "Voices UnderThreat: Solidarity with LGBT Movements in Crisis",
    "address": "Clarion Hotel Sign, Ã–stra JÃ¤rnvÃ¤gsgatan 35, 111 20 Stockholm",
    "lat": 59.33475759999999,
    "lon": 18.0531934
  },
  {
    "id": 4223,
    "title": "Hetero i konsten. Queerspaning pÃ¥ Thielska Galleriet",
    "address": "SjÃ¶tullsbacken 8",
    "lat": 59.3222526,
    "lon": 18.1487242
  },
  {
    "id": 4218,
    "title": "Queer Bokcirkel ",
    "address": " Sergels Torg, 111 57 Stockholm",
    "lat": 59.3323564,
    "lon": 18.0652907
  },
  {
    "id": 4154,
    "title": "Pride pÃ¥ SjÃ¶historiska",
    "address": ""
  },
  {
    "id": 4227,
    "title": "About the struggle in Hungary and Georgia with the Rainbow Fund and partners",
    "address": "Clarion Hotel Sign, Ã–stra JÃ¤rnvÃ¤gsgatan 35, 111 20 Stockholm",
    "lat": 59.33475759999999,
    "lon": 18.0531934
  },
  {
    "id": 4215,
    "title": "ArbetsmiljÃ¶verket & Myndigheten fÃ¶r arbetsmiljÃ¶kunskap: ArbetsmiljÃ¶n spelar roll â€“ hbtqi-personers rÃ¤ttigheter i fokus",
    "address": "Clarion Hotel Sign, Ã–stra JÃ¤rnvÃ¤gsgatan 35, 111 20 Stockholm",
    "lat": 59.33475759999999,
    "lon": 18.0531934
  },
  {
    "id": 4068,
    "title": "BehÃ¶vs ecoqueer organisering? ",
    "address": "Clarion Hotel Sign, Ã–stra JÃ¤rnvÃ¤gsgatan 35, 111 20 Stockholm",
    "lat": 59.33475759999999,
    "lon": 18.0531934
  },
  {
    "id": 4248,
    "title": "Hot, hat och motstÃ¥nd: HBTQIA+ personers rÃ¤ttigheter i en internationell kontext ",
    "address": "Clarion Hotel Sign, Ã–stra JÃ¤rnvÃ¤gsgatan 35, 111 20 Stockholm",
    "lat": 59.33475759999999,
    "lon": 18.0531934
  },
  {
    "id": 4061,
    "title": "Queer historia och livet som Ã¤kta makor",
    "address": "Kaplansbacken 1",
    "lat": 59.328763,
    "lon": 18.0486524
  },
  {
    "id": 4242,
    "title": "Stadsvandring: Klotter och queera mÃ¶tesplatser",
    "address": "Hamngatan 4",
    "lat": 59.33324139999999,
    "lon": 18.0744841
  },
  {
    "id": 4257,
    "title": "The banned EuroPride 2022 in Belgrade ",
    "address": "Clarion Hotel Sign, Ã–stra JÃ¤rnvÃ¤gsgatan 35, 111 20 Stockholm",
    "lat": 59.33475759999999,
    "lon": 18.0531934
  },
  {
    "id": 3994,
    "title": "KonstnÃ¤r Ronja HÃ¥llsten",
    "address": "Ã–stermalms IP, SÃ¶dra FiskartorpsvÃ¤gen 2",
    "lat": 59.3475194,
    "lon": 18.0835005
  },
  {
    "id": 4250,
    "title": "Fri att Ã¤lska â€“ utan hinder, utan risk",
    "address": "Clarion Hotel Sign, Ã–stra JÃ¤rnvÃ¤gsgatan 35, 111 20 Stockholm",
    "lat": 59.33475759999999,
    "lon": 18.0531934
  },
  {
    "id": 4188,
    "title": "Gospelworkshop",
    "address": "Clarion Hotel Sign, Ã–stra JÃ¤rnvÃ¤gsgatan 35, 111 20 Stockholm",
    "lat": 59.33475759999999,
    "lon": 18.0531934
  },
  {
    "id": 4046,
    "title": "Hur polariserade Ã¤r vi - egentligen?   ",
    "address": "Clarion Hotel Sign, Ã–stra JÃ¤rnvÃ¤gsgatan 35, 111 20 Stockholm",
    "lat": 59.33475759999999,
    "lon": 18.0531934
  },
  {
    "id": 4217,
    "title": "JÃ¤mstÃ¤lldhetsmyndigheten: UtanfÃ¶r normen, utanfÃ¶r skyddsnÃ¤ten",
    "address": "Clarion Hotel Sign, Ã–stra JÃ¤rnvÃ¤gsgatan 35, 111 20 Stockholm",
    "lat": 59.33475759999999,
    "lon": 18.0531934
  },
  {
    "id": 4202,
    "title": "RegnbÃ¥gsbaren med Stockholms BrÃ¤nneri",
    "address": "HerserudsvÃ¤gen 22, LidingÃ¶",
    "lat": 59.3600557,
    "lon": 18.1205675
  },
  {
    "id": 4002,
    "title": "ðŸŒˆPride Youth i ParkenðŸŒˆ",
    "address": "Ã–stermalms IP, SÃ¶dra FiskartorpsvÃ¤gen 2",
    "lat": 59.3475194,
    "lon": 18.0835005
  },
  {
    "id": 4162,
    "title": "Prova pÃ¥- Rep",
    "address": "Ã–stermalms IP, SÃ¶dra FiskartorpsvÃ¤gen 2",
    "lat": 59.3475194,
    "lon": 18.0835005
  },
  {
    "id": 4231,
    "title": "Smiskskola",
    "address": "Ã–stermalms IP, SÃ¶dra FiskartorpsvÃ¤gen 2",
    "lat": 59.3475194,
    "lon": 18.0835005
  },
  {
    "id": 3992,
    "title": "KonstnÃ¤r Magnus Johansson",
    "address": "Ã–stermalms IP, SÃ¶dra FiskartorpsvÃ¤gen 2",
    "lat": 59.3475194,
    "lon": 18.0835005
  },
  {
    "id": 3991,
    "title": "KonstnÃ¤r YlvaMaria Thompson",
    "address": "Ã–stermalms IP, SÃ¶dra FiskartorpsvÃ¤gen 2",
    "lat": 59.3475194,
    "lon": 18.0835005
  },
  {
    "id": 3997,
    "title": "KonstnÃ¤r Emelie Svartenmark",
    "address": "Ã–stermalms IP, SÃ¶dra FiskartorpsvÃ¤gen 2",
    "lat": 59.3475194,
    "lon": 18.0835005
  },
  {
    "id": 4081,
    "title": "KonstnÃ¤r Hanna Wendeler",
    "address": "Ã–stermalms IP, SÃ¶dra FiskartorpsvÃ¤gen 2",
    "lat": 59.3475194,
    "lon": 18.0835005
  },
  {
    "id": 4077,
    "title": "KonstnÃ¤r Jaymie Stellmar-Wright",
    "address": "Ã–stermalms IP, SÃ¶dra FiskartorpsvÃ¤gen 2",
    "lat": 59.3475194,
    "lon": 18.0835005
  },
  {
    "id": 3990,
    "title": "KonstnÃ¤r Jonas Augustsson",
    "address": "Ã–stermalms IP, SÃ¶dra FiskartorpsvÃ¤gen 2",
    "lat": 59.3475194,
    "lon": 18.0835005
  },
  {
    "id": 3996,
    "title": "KonstnÃ¤r Katarina Thomassen",
    "address": "Ã–stermalms IP, SÃ¶dra FiskartorpsvÃ¤gen 2",
    "lat": 59.3475194,
    "lon": 18.0835005
  },
  {
    "id": 4079,
    "title": "KonstnÃ¤r LinnÃ©a Johnsson",
    "address": "Ã–stermalms IP, SÃ¶dra FiskartorpsvÃ¤gen 2",
    "lat": 59.3475194,
    "lon": 18.0835005
  },
  {
    "id": 4080,
    "title": "KonstnÃ¤r Lotta Tamba",
    "address": "Ã–stermalms IP, SÃ¶dra FiskartorpsvÃ¤gen 2",
    "lat": 59.3475194,
    "lon": 18.0835005
  },
  {
    "id": 3988,
    "title": "KonstnÃ¤r Mikael da Silva Eriksson",
    "address": "Ã–stermalms IP, SÃ¶dra FiskartorpsvÃ¤gen 2",
    "lat": 59.3475194,
    "lon": 18.0835005
  },
  {
    "id": 4078,
    "title": "KonstnÃ¤r My Olsson",
    "address": "Ã–stermalms IP, SÃ¶dra FiskartorpsvÃ¤gen 2",
    "lat": 59.3475194,
    "lon": 18.0835005
  },
  {
    "id": 3989,
    "title": "KonstnÃ¤r Phil of Sweden / Filip Lundberg",
    "address": "Ã–stermalms IP, SÃ¶dra FiskartorpsvÃ¤gen 2",
    "lat": 59.3475194,
    "lon": 18.0835005
  },
  {
    "id": 3987,
    "title": "KonstnÃ¤r Richard Klarby",
    "address": "Ã–stermalms IP, SÃ¶dra FiskartorpsvÃ¤gen 2",
    "lat": 59.3475194,
    "lon": 18.0835005
  },
  {
    "id": 4270,
    "title": "Musikquiz i Korsordsform goes Pride",
    "address": "Ã–stermalms IP, SÃ¶dra FiskartorpsvÃ¤gen 2",
    "lat": 59.3475194,
    "lon": 18.0835005
  },
  {
    "id": 4296,
    "title": "Strike a pose â€“ fÃ¥nga din Pride-look!",
    "address": "Ã–stermalms IP, SÃ¶dra FiskartorpsvÃ¤gen 2",
    "lat": 59.3475194,
    "lon": 18.0835005
  },
  {
    "id": 4112,
    "title": "Konsten, politiken och friheten",
    "address": "EstmansvÃ¤gen 10-12",
    "lat": 59.33963019999999,
    "lon": 18.043933
  },
  {
    "id": 4206,
    "title": "Ã„gande Ã¤r makt â€“ men vem Ã¤ger i kÃ¤rlekens namn?",
    "address": "Ã–stermalms IP, SÃ¶dra FiskartorpsvÃ¤gen 2",
    "lat": 59.3475194,
    "lon": 18.0835005
  },
  {
    "id": 4169,
    "title": "FrÃ¥n Broadway till Stockholm Pride",
    "address": "Ã–stermalms IP, SÃ¶dra FiskartorpsvÃ¤gen 2",
    "lat": 59.3475194,
    "lon": 18.0835005
  },
  {
    "id": 4108,
    "title": "Livepodd- Kinkypodden",
    "address": "Ã–stermalms IP, SÃ¶dra FiskartorpsvÃ¤gen 2",
    "lat": 59.3475194,
    "lon": 18.0835005
  },
  {
    "id": 4129,
    "title": "Tool free impact play",
    "address": "Ã–stermalms IP, SÃ¶dra FiskartorpsvÃ¤gen 2",
    "lat": 59.3475194,
    "lon": 18.0835005
  },
  {
    "id": 4095,
    "title": "Polymingel",
    "address": "Kungsgatan 70",
    "lat": 59.3338159,
    "lon": 18.05606
  },
  {
    "id": 4186,
    "title": "KingkvÃ¤ll pÃ¥ RegnbÃ¥gsscenen",
    "address": "Ã–stermalms IP, SÃ¶dra FiskartorpsvÃ¤gen 2",
    "lat": 59.3475194,
    "lon": 18.0835005
  },
  {
    "id": 4260,
    "title": "FÃ¶rbjuden litteratur i Ryssland",
    "address": "Hantverkargatan 32, Stockholm",
    "lat": 59.32928399999999,
    "lon": 18.0417797
  },
  {
    "id": 4170,
    "title": "SchlagerkvÃ¤llen",
    "address": "Ã–stermalms IP, SÃ¶dra FiskartorpsvÃ¤gen 2",
    "lat": 59.3475194,
    "lon": 18.0835005
  },
  {
    "id": 4186,
    "title": "KingkvÃ¤ll pÃ¥ RegnbÃ¥gsscenen",
    "address": "Ã–stermalms IP, SÃ¶dra FiskartorpsvÃ¤gen 2",
    "lat": 59.3475194,
    "lon": 18.0835005
  },
  {
    "id": 4036,
    "title": "UnderklÃ¤desfesten 2025",
    "address": "Hornstulls strand 4, 117 39 Stockholm",
    "lat": 59.3143864,
    "lon": 18.0326629
  },
  {
    "id": 4130,
    "title": "How to pick up a kinky guy?",
    "address": "Ã–stermalms IP, SÃ¶dra FiskartorpsvÃ¤gen 2",
    "lat": 59.3475194,
    "lon": 18.0835005
  },
  {
    "id": 4294,
    "title": "RÃ¶dluvan, The kinkyversion",
    "address": "Ã–stermalms IP, SÃ¶dra FiskartorpsvÃ¤gen 2",
    "lat": 59.3475194,
    "lon": 18.0835005
  },
  {
    "id": 4170,
    "title": "SchlagerkvÃ¤llen",
    "address": "Ã–stermalms IP, SÃ¶dra FiskartorpsvÃ¤gen 2",
    "lat": 59.3475194,
    "lon": 18.0835005
  },
  {
    "id": 4145,
    "title": "NÃ¥l & neonshow ",
    "address": "Ã–stermalms IP, SÃ¶dra FiskartorpsvÃ¤gen 2",
    "lat": 59.3475194,
    "lon": 18.0835005
  },
  {
    "id": 4277,
    "title": "Silent Disco - Live DJ",
    "address": "Ã–stermalms IP, SÃ¶dra FiskartorpsvÃ¤gen 2",
    "lat": 59.3475194,
    "lon": 18.0835005
  },
  {
    "id": 4265,
    "title": "Schlager,melfest med Dj leo.B ",
    "address": "ArenavÃ¤gen 75",
    "lat": 59.2908721,
    "lon": 18.0839815
  },
  {
    "id": 4010,
    "title": "SkaparcafÃ©",
    "address": "SjÃ¶vikskajen 36â€“42",
    "lat": 59.3065702,
    "lon": 18.0338796
  },
  {
    "id": 4290,
    "title": "Tipspromenad",
    "address": "Bolindersplan 1",
    "lat": 59.32915380000001,
    "lon": 18.0523313
  },
  {
    "id": 4059,
    "title": "Ã–ppen fÃ¶rskola",
    "address": "HÃ¶galids kyrkvÃ¤g 15",
    "lat": 59.3171974,
    "lon": 18.0369225
  },
  {
    "id": 4289,
    "title": "BÃ¶gbibblan med bokbord och boklotteri",
    "address": "Bolindersplan 1",
    "lat": 59.32915380000001,
    "lon": 18.0523313
  },
  {
    "id": 4154,
    "title": "Pride pÃ¥ SjÃ¶historiska",
    "address": ""
  },
  {
    "id": 4258,
    "title": "Queer hÃ¶glÃ¤sning",
    "address": "Clarion Hotel Sign, Ã–stra JÃ¤rnvÃ¤gsgatan 35, 111 20 Stockholm",
    "lat": 59.33475759999999,
    "lon": 18.0531934
  },
  {
    "id": 4043,
    "title": "Changing society in times of war     ",
    "address": "Clarion Hotel Sign, Ã–stra JÃ¤rnvÃ¤gsgatan 35, 111 20 Stockholm",
    "lat": 59.33475759999999,
    "lon": 18.0531934
  },
  {
    "id": 4102,
    "title": "Solidarity and resistance across borders - international outlook in times of backlash ",
    "address": "Clarion Hotel Sign, Ã–stra JÃ¤rnvÃ¤gsgatan 35, 111 20 Stockholm",
    "lat": 59.33475759999999,
    "lon": 18.0531934
  },
  {
    "id": 4037,
    "title": "Success and Failure Stories from Our Newcomer Asylum Individuals",
    "address": "Clarion Hotel Sign, Ã–stra JÃ¤rnvÃ¤gsgatan 35, 111 20 Stockholm",
    "lat": 59.33475759999999,
    "lon": 18.0531934
  },
  {
    "id": 4007,
    "title": "Kunglig Queerhistoria / Royal Queer History",
    "address": "Slottsbacken 1",
    "lat": 59.3256689,
    "lon": 18.0714858
  },
  {
    "id": 4013,
    "title": " Drop-in vigsel och vÃ¤lsignelse",
    "address": "SjÃ¶vikskajen 36â€“42",
    "lat": 59.3065702,
    "lon": 18.0338796
  },
  {
    "id": 4042,
    "title": "Asylum Legal Advice",
    "address": "Clarion Hotel Sign, Ã–stra JÃ¤rnvÃ¤gsgatan 35, 111 20 Stockholm",
    "lat": 59.33475759999999,
    "lon": 18.0531934
  },
  {
    "id": 4085,
    "title": "KonstnÃ¤r Alexandra JÃ¶raas Skoogh",
    "address": "Clarion Hotel Sign, Ã–stra JÃ¤rnvÃ¤gsgatan 35, 111 20 Stockholm",
    "lat": 59.33475759999999,
    "lon": 18.0531934
  },
  {
    "id": 4083,
    "title": "KonstnÃ¤r Christian Haag",
    "address": "Clarion Hotel Sign, Ã–stra JÃ¤rnvÃ¤gsgatan 35, 111 20 Stockholm",
    "lat": 59.33475759999999,
    "lon": 18.0531934
  },
  {
    "id": 4190,
    "title": "KonstnÃ¤r Hannes Enocksson",
    "address": "Clarion Hotel Sign, Ã–stra JÃ¤rnvÃ¤gsgatan 35, 111 20 Stockholm",
    "lat": 59.33475759999999,
    "lon": 18.0531934
  },
  {
    "id": 4084,
    "title": "KonstnÃ¤r Jessica Jansson",
    "address": "Clarion Hotel Sign, Ã–stra JÃ¤rnvÃ¤gsgatan 35, 111 20 Stockholm",
    "lat": 59.33475759999999,
    "lon": 18.0531934
  },
  {
    "id": 4301,
    "title": "KonstnÃ¤r Karin Barowiak",
    "address": "Clarion Hotel Sign, Ã–stra JÃ¤rnvÃ¤gsgatan 35, 111 20 Stockholm",
    "lat": 59.33475759999999,
    "lon": 18.0531934
  },
  {
    "id": 4086,
    "title": "KonstnÃ¤r Nea Ringdahl",
    "address": "Clarion Hotel Sign, Ã–stra JÃ¤rnvÃ¤gsgatan 35, 111 20 Stockholm",
    "lat": 59.33475759999999,
    "lon": 18.0531934
  },
  {
    "id": 4082,
    "title": "KonstnÃ¤r Otto Hargne",
    "address": "Clarion Hotel Sign, Ã–stra JÃ¤rnvÃ¤gsgatan 35, 111 20 Stockholm",
    "lat": 59.33475759999999,
    "lon": 18.0531934
  },
  {
    "id": 4300,
    "title": "KonstnÃ¤r Pirjo Palonen",
    "address": "Clarion Hotel Sign, Ã–stra JÃ¤rnvÃ¤gsgatan 35, 111 20 Stockholm",
    "lat": 59.33475759999999,
    "lon": 18.0531934
  },
  {
    "id": 3998,
    "title": "KonstnÃ¤r: Lina BjÃ¶rkman",
    "address": "Clarion Hotel Sign, Ã–stra JÃ¤rnvÃ¤gsgatan 35, 111 20 Stockholm",
    "lat": 59.33475759999999,
    "lon": 18.0531934
  },
  {
    "id": 3995,
    "title": "KonstnÃ¤r: Nilla Wikberg",
    "address": "Clarion Hotel Sign, Ã–stra JÃ¤rnvÃ¤gsgatan 35, 111 20 Stockholm",
    "lat": 59.33475759999999,
    "lon": 18.0531934
  },
  {
    "id": 4243,
    "title": "Pride Fair - Marknad ",
    "address": "Clarion Hotel Sign, Ã–stra JÃ¤rnvÃ¤gsgatan 35, 111 20 Stockholm",
    "lat": 59.33475759999999,
    "lon": 18.0531934
  },
  {
    "id": 4006,
    "title": "ðŸŒˆ Pride Youth pÃ¥ House! ðŸŒˆ",
    "address": "Clarion Hotel Sign, Ã–stra JÃ¤rnvÃ¤gsgatan 35, 111 20 Stockholm",
    "lat": 59.33475759999999,
    "lon": 18.0531934
  },
  {
    "id": 4001,
    "title": "Dropin pÃ¥ StaDemonia Tattoo Stockholm",
    "address": "Slipgatan 9",
    "lat": 59.3173973,
    "lon": 18.0278023
  },
  {
    "id": 4262,
    "title": "For the Love of Kink",
    "address": "Slipgatan 9",
    "lat": 59.3173973,
    "lon": 18.0278023
  },
  {
    "id": 4189,
    "title": "For the Love of Kink",
    "address": "Slipgatan 9",
    "lat": 59.3173973,
    "lon": 18.0278023
  },
  {
    "id": 4240,
    "title": "UtstÃ¤llning: I utsÃ¶kt sÃ¤llskap",
    "address": "Hamngatan 4",
    "lat": 59.33324139999999,
    "lon": 18.0744841
  },
  {
    "id": 4251,
    "title": "Queer Rights are Childrenâ€™s Rights!",
    "address": "Clarion Hotel Sign, Ã–stra JÃ¤rnvÃ¤gsgatan 35, 111 20 Stockholm",
    "lat": 59.33475759999999,
    "lon": 18.0531934
  },
  {
    "id": 4107,
    "title": "Queer i SÃ¡pmi",
    "address": "Clarion Hotel Sign, Ã–stra JÃ¤rnvÃ¤gsgatan 35, 111 20 Stockholm",
    "lat": 59.33475759999999,
    "lon": 18.0531934
  },
  {
    "id": 4292,
    "title": "Prisutdelning",
    "address": "Bolindersplan 1",
    "lat": 59.32915380000001,
    "lon": 18.0523313
  },
  {
    "id": 4054,
    "title": "Regionpolitisk debatt med RFSL Stockholm",
    "address": "Clarion Hotel Sign, Ã–stra JÃ¤rnvÃ¤gsgatan 35, 111 20 Stockholm",
    "lat": 59.33475759999999,
    "lon": 18.0531934
  },
  {
    "id": 4015,
    "title": "Drop-in vigslar i Sigtuna rÃ¥dhus",
    "address": "Stora torget i Sigtuna",
    "lat": 59.6191463,
    "lon": 17.7234191
  },
  {
    "id": 4022,
    "title": "RegnbÃ¥gscafÃ©",
    "address": "Kaplansbacken 1",
    "lat": 59.328763,
    "lon": 18.0486524
  },
  {
    "id": 4253,
    "title": "â€œTrans*women are wronged and disadvantaged by law and society in Swedenâ€",
    "address": "Clarion Hotel Sign, Ã–stra JÃ¤rnvÃ¤gsgatan 35, 111 20 Stockholm",
    "lat": 59.33475759999999,
    "lon": 18.0531934
  },
  {
    "id": 4224,
    "title": "A Safer Future",
    "address": "Clarion Hotel Sign, Ã–stra JÃ¤rnvÃ¤gsgatan 35, 111 20 Stockholm",
    "lat": 59.33475759999999,
    "lon": 18.0531934
  },
  {
    "id": 4038,
    "title": "Hbtqi-asylrÃ¤ttspraxis 2025 - temadag asyl och migration",
    "address": "Clarion Hotel Sign, Ã–stra JÃ¤rnvÃ¤gsgatan 35, 111 20 Stockholm",
    "lat": 59.33475759999999,
    "lon": 18.0531934
  },
  {
    "id": 4291,
    "title": "Pridegympa",
    "address": "Bolindersplan 1",
    "lat": 59.32915380000001,
    "lon": 18.0523313
  },
  {
    "id": 4252,
    "title": "SÃ¥ driver du igenom fÃ¶rÃ¤ndring! ",
    "address": "Clarion Hotel Sign, Ã–stra JÃ¤rnvÃ¤gsgatan 35, 111 20 Stockholm",
    "lat": 59.33475759999999,
    "lon": 18.0531934
  },
  {
    "id": 4197,
    "title": "Koda i Python pÃ¥ Pride Youth (fredag)",
    "address": "Clarion Hotel Sign, Ã–stra JÃ¤rnvÃ¤gsgatan 35, 111 20 Stockholm",
    "lat": 59.33475759999999,
    "lon": 18.0531934
  },
  {
    "id": 4023,
    "title": "Drop-in vigsel",
    "address": "Kaplansbacken 1",
    "lat": 59.328763,
    "lon": 18.0486524
  },
  {
    "id": 4219,
    "title": "Plakat-fix",
    "address": " Sergels Torg, 111 57 Stockholm",
    "lat": 59.3323564,
    "lon": 18.0652907
  },
  {
    "id": 4007,
    "title": "Kunglig Queerhistoria / Royal Queer History",
    "address": "Slottsbacken 1",
    "lat": 59.3256689,
    "lon": 18.0714858
  },
  {
    "id": 4114,
    "title": "Skadad av kyrkan â€“ hur gÃ¥r jag vidare? ",
    "address": "Kungstensgatan 17",
    "lat": 59.34249209999999,
    "lon": 18.063306
  },
  {
    "id": 4154,
    "title": "Pride pÃ¥ SjÃ¶historiska",
    "address": ""
  },
  {
    "id": 4098,
    "title": "SPECIALVISNINGAR: HBTQ+-personer under FÃ¶rintelsen ",
    "address": "Torsgatan 19, 113 21 Stockholm",
    "lat": 59.33707889999999,
    "lon": 18.0425254
  },
  {
    "id": 4103,
    "title": " Hur gÃ¥r det fÃ¶r demokratin? ",
    "address": "Clarion Hotel Sign, Ã–stra JÃ¤rnvÃ¤gsgatan 35, 111 20 Stockholm",
    "lat": 59.33475759999999,
    "lon": 18.0531934
  },
  {
    "id": 4039,
    "title": " Migrationsmyndigheternas bedÃ¶mningar av hbtqi-asylÃ¤renden - temadag asyl och migration",
    "address": "Clarion Hotel Sign, Ã–stra JÃ¤rnvÃ¤gsgatan 35, 111 20 Stockholm",
    "lat": 59.33475759999999,
    "lon": 18.0531934
  },
  {
    "id": 4263,
    "title": "NÃ¤r lust blir konsumtion â€“ ett samtal om sexkÃ¶p, pornografi och relationer",
    "address": "Clarion Hotel Sign, Ã–stra JÃ¤rnvÃ¤gsgatan 35, 111 20 Stockholm",
    "lat": 59.33475759999999,
    "lon": 18.0531934
  },
  {
    "id": 4256,
    "title": "Plakatpyssel infÃ¶r Paraden och OrganisationshÃ¤ng! ",
    "address": "Clarion Hotel Sign, Ã–stra JÃ¤rnvÃ¤gsgatan 35, 111 20 Stockholm",
    "lat": 59.33475759999999,
    "lon": 18.0531934
  },
  {
    "id": 4154,
    "title": "Pride pÃ¥ SjÃ¶historiska",
    "address": ""
  },
  {
    "id": 4045,
    "title": "Donatorer och halvsyskon â€“ vilken information ska barn rÃ¤tt till?",
    "address": "Clarion Hotel Sign, Ã–stra JÃ¤rnvÃ¤gsgatan 35, 111 20 Stockholm",
    "lat": 59.33475759999999,
    "lon": 18.0531934
  },
  {
    "id": 4003,
    "title": "LGBT Culture - Nordic and beyond",
    "address": "Clarion Hotel Sign, Ã–stra JÃ¤rnvÃ¤gsgatan 35, 111 20 Stockholm",
    "lat": 59.33475759999999,
    "lon": 18.0531934
  },
  {
    "id": 4031,
    "title": "Unga hbtqi-personers rÃ¤tt till asyl - Nycklar till rÃ¤ttssÃ¤kerheten",
    "address": "Clarion Hotel Sign, Ã–stra JÃ¤rnvÃ¤gsgatan 35, 111 20 Stockholm",
    "lat": 59.33475759999999,
    "lon": 18.0531934
  },
  {
    "id": 4242,
    "title": "Stadsvandring: Klotter och queera mÃ¶tesplatser",
    "address": "Hamngatan 4",
    "lat": 59.33324139999999,
    "lon": 18.0744841
  },
  {
    "id": 4053,
    "title": "Kommunpolitisk debatt med RFSL Stockholm",
    "address": "Clarion Hotel Sign, Ã–stra JÃ¤rnvÃ¤gsgatan 35, 111 20 Stockholm",
    "lat": 59.33475759999999,
    "lon": 18.0531934
  },
  {
    "id": 4111,
    "title": "Polypicnic",
    "address": "Observatorielunden",
    "lat": 59.3421811,
    "lon": 18.0546792
  },
  {
    "id": 4246,
    "title": "RegnbÃ¥gsscouternas picknick ",
    "address": "Norra bantorget",
    "lat": 59.3349205,
    "lon": 18.0545926
  },
  {
    "id": 4239,
    "title": "KonstnÃ¤r Astrid WrangÃ¶",
    "address": "Ã–stermalms IP, SÃ¶dra FiskartorpsvÃ¤gen 2",
    "lat": 59.3475194,
    "lon": 18.0835005
  },
  {
    "id": 3997,
    "title": "KonstnÃ¤r Emelie Svartenmark",
    "address": "Ã–stermalms IP, SÃ¶dra FiskartorpsvÃ¤gen 2",
    "lat": 59.3475194,
    "lon": 18.0835005
  },
  {
    "id": 4081,
    "title": "KonstnÃ¤r Hanna Wendeler",
    "address": "Ã–stermalms IP, SÃ¶dra FiskartorpsvÃ¤gen 2",
    "lat": 59.3475194,
    "lon": 18.0835005
  },
  {
    "id": 4077,
    "title": "KonstnÃ¤r Jaymie Stellmar-Wright",
    "address": "Ã–stermalms IP, SÃ¶dra FiskartorpsvÃ¤gen 2",
    "lat": 59.3475194,
    "lon": 18.0835005
  },
  {
    "id": 3990,
    "title": "KonstnÃ¤r Jonas Augustsson",
    "address": "Ã–stermalms IP, SÃ¶dra FiskartorpsvÃ¤gen 2",
    "lat": 59.3475194,
    "lon": 18.0835005
  },
  {
    "id": 3996,
    "title": "KonstnÃ¤r Katarina Thomassen",
    "address": "Ã–stermalms IP, SÃ¶dra FiskartorpsvÃ¤gen 2",
    "lat": 59.3475194,
    "lon": 18.0835005
  },
  {
    "id": 4079,
    "title": "KonstnÃ¤r LinnÃ©a Johnsson",
    "address": "Ã–stermalms IP, SÃ¶dra FiskartorpsvÃ¤gen 2",
    "lat": 59.3475194,
    "lon": 18.0835005
  },
  {
    "id": 4080,
    "title": "KonstnÃ¤r Lotta Tamba",
    "address": "Ã–stermalms IP, SÃ¶dra FiskartorpsvÃ¤gen 2",
    "lat": 59.3475194,
    "lon": 18.0835005
  },
  {
    "id": 3988,
    "title": "KonstnÃ¤r Mikael da Silva Eriksson",
    "address": "Ã–stermalms IP, SÃ¶dra FiskartorpsvÃ¤gen 2",
    "lat": 59.3475194,
    "lon": 18.0835005
  },
  {
    "id": 4078,
    "title": "KonstnÃ¤r My Olsson",
    "address": "Ã–stermalms IP, SÃ¶dra FiskartorpsvÃ¤gen 2",
    "lat": 59.3475194,
    "lon": 18.0835005
  },
  {
    "id": 3989,
    "title": "KonstnÃ¤r Phil of Sweden / Filip Lundberg",
    "address": "Ã–stermalms IP, SÃ¶dra FiskartorpsvÃ¤gen 2",
    "lat": 59.3475194,
    "lon": 18.0835005
  },
  {
    "id": 3987,
    "title": "KonstnÃ¤r Richard Klarby",
    "address": "Ã–stermalms IP, SÃ¶dra FiskartorpsvÃ¤gen 2",
    "lat": 59.3475194,
    "lon": 18.0835005
  },
  {
    "id": 4027,
    "title": "Osynliggjorda RÃ¶ster: HBTQ+ Ungdomars Utsatthet och Minoritetsstress pÃ¥ HVB och SIS",
    "address": "Clarion Hotel Sign, Ã–stra JÃ¤rnvÃ¤gsgatan 35, 111 20 Stockholm",
    "lat": 59.33475759999999,
    "lon": 18.0531934
  },
  {
    "id": 4305,
    "title": "QueerRueda",
    "address": "Clarion Hotel Sign, Ã–stra JÃ¤rnvÃ¤gsgatan 35, 111 20 Stockholm",
    "lat": 59.33475759999999,
    "lon": 18.0531934
  },
  {
    "id": 4120,
    "title": "Sex som funkar ",
    "address": "Clarion Hotel Sign, Ã–stra JÃ¤rnvÃ¤gsgatan 35, 111 20 Stockholm",
    "lat": 59.33475759999999,
    "lon": 18.0531934
  },
  {
    "id": 4261,
    "title": "Vad blir nÃ¤sta stora HBTQI-reform?",
    "address": "Clarion Hotel Sign, Ã–stra JÃ¤rnvÃ¤gsgatan 35, 111 20 Stockholm",
    "lat": 59.33475759999999,
    "lon": 18.0531934
  },
  {
    "id": 4122,
    "title": "Krobari ",
    "address": "Ã–stermalms IP, SÃ¶dra FiskartorpsvÃ¤gen 2",
    "lat": 59.3475194,
    "lon": 18.0835005
  },
  {
    "id": 4220,
    "title": "The Legendary Kiki House of Angels presents: Pride Ballroom Session ",
    "address": " Sergels Torg, 111 57 Stockholm",
    "lat": 59.3323564,
    "lon": 18.0652907
  },
  {
    "id": 4204,
    "title": "AW med DJ Gunn ",
    "address": "HerserudsvÃ¤gen 22, LidingÃ¶",
    "lat": 59.3600557,
    "lon": 18.1205675
  },
  {
    "id": 4202,
    "title": "RegnbÃ¥gsbaren med Stockholms BrÃ¤nneri",
    "address": "HerserudsvÃ¤gen 22, LidingÃ¶",
    "lat": 59.3600557,
    "lon": 18.1205675
  },
  {
    "id": 4002,
    "title": "ðŸŒˆPride Youth i ParkenðŸŒˆ",
    "address": "Ã–stermalms IP, SÃ¶dra FiskartorpsvÃ¤gen 2",
    "lat": 59.3475194,
    "lon": 18.0835005
  },
  {
    "id": 4231,
    "title": "Smiskskola",
    "address": "Ã–stermalms IP, SÃ¶dra FiskartorpsvÃ¤gen 2",
    "lat": 59.3475194,
    "lon": 18.0835005
  },
  {
    "id": 4162,
    "title": "Prova pÃ¥- Rep",
    "address": "Ã–stermalms IP, SÃ¶dra FiskartorpsvÃ¤gen 2",
    "lat": 59.3475194,
    "lon": 18.0835005
  },
  {
    "id": 3992,
    "title": "KonstnÃ¤r Magnus Johansson",
    "address": "Ã–stermalms IP, SÃ¶dra FiskartorpsvÃ¤gen 2",
    "lat": 59.3475194,
    "lon": 18.0835005
  },
  {
    "id": 3994,
    "title": "KonstnÃ¤r Ronja HÃ¥llsten",
    "address": "Ã–stermalms IP, SÃ¶dra FiskartorpsvÃ¤gen 2",
    "lat": 59.3475194,
    "lon": 18.0835005
  },
  {
    "id": 3991,
    "title": "KonstnÃ¤r YlvaMaria Thompson",
    "address": "Ã–stermalms IP, SÃ¶dra FiskartorpsvÃ¤gen 2",
    "lat": 59.3475194,
    "lon": 18.0835005
  },
  {
    "id": 4296,
    "title": "Strike a pose â€“ fÃ¥nga din Pride-look!",
    "address": "Ã–stermalms IP, SÃ¶dra FiskartorpsvÃ¤gen 2",
    "lat": 59.3475194,
    "lon": 18.0835005
  },
  {
    "id": 4273,
    "title": "Student Pride Pub med Panelsamtal",
    "address": "Drottning Kristinas vÃ¤g 15-19",
    "lat": 59.347337,
    "lon": 18.070904
  },
  {
    "id": 4131,
    "title": "SLM & LASH/Wish â€“ Ett kÃ¤rleksdrama i 2 akter",
    "address": "Ã–stermalms IP, SÃ¶dra FiskartorpsvÃ¤gen 2",
    "lat": 59.3475194,
    "lon": 18.0835005
  },
  {
    "id": 4275,
    "title": "TrÃ¤ff fÃ¶r transpersoner",
    "address": ""
  },
  {
    "id": 4200,
    "title": "FUQT",
    "address": "Ã–stermalms IP, SÃ¶dra FiskartorpsvÃ¤gen 2",
    "lat": 59.3475194,
    "lon": 18.0835005
  },
  {
    "id": 4137,
    "title": "Show and tell: D/s basics",
    "address": "Ã–stermalms IP, SÃ¶dra FiskartorpsvÃ¤gen 2",
    "lat": 59.3475194,
    "lon": 18.0835005
  },
  {
    "id": 4171,
    "title": "Julia Lov",
    "address": "Ã–stermalms IP, SÃ¶dra FiskartorpsvÃ¤gen 2",
    "lat": 59.3475194,
    "lon": 18.0835005
  },
  {
    "id": 4144,
    "title": "Modevisning",
    "address": "Ã–stermalms IP, SÃ¶dra FiskartorpsvÃ¤gen 2",
    "lat": 59.3475194,
    "lon": 18.0835005
  },
  {
    "id": 4280,
    "title": "Pride Pole Extravaganza",
    "address": "Ã–stermalms IP, SÃ¶dra FiskartorpsvÃ¤gen 2",
    "lat": 59.3475194,
    "lon": 18.0835005
  },
  {
    "id": 4101,
    "title": "Admiras Prajd-SpÃ¤ck - Le Grand Final",
    "address": "Karlaplan 4",
    "lat": 59.337071,
    "lon": 18.088904
  },
  {
    "id": 4268,
    "title": "Dj Leo.B @hotelSix SUS",
    "address": "Brunkebergstorg 6",
    "lat": 59.3309757,
    "lon": 18.0669268
  },
  {
    "id": 4151,
    "title": "24/7 och D/s",
    "address": "Ã–stermalms IP, SÃ¶dra FiskartorpsvÃ¤gen 2",
    "lat": 59.3475194,
    "lon": 18.0835005
  },
  {
    "id": 4109,
    "title": "EXORCISTERNA",
    "address": "Ã–stermalms IP, SÃ¶dra FiskartorpsvÃ¤gen 2",
    "lat": 59.3475194,
    "lon": 18.0835005
  },
  {
    "id": 4172,
    "title": "Programpunkten slÃ¤pps snart",
    "address": "Ã–stermalms IP, SÃ¶dra FiskartorpsvÃ¤gen 2",
    "lat": 59.3475194,
    "lon": 18.0835005
  },
  {
    "id": 4279,
    "title": "Le Grand Burlesque Bingo",
    "address": "Ã–stermalms IP, SÃ¶dra FiskartorpsvÃ¤gen 2",
    "lat": 59.3475194,
    "lon": 18.0835005
  },
  {
    "id": 4173,
    "title": "Programpunkten slÃ¤pps snart",
    "address": "Ã–stermalms IP, SÃ¶dra FiskartorpsvÃ¤gen 2",
    "lat": 59.3475194,
    "lon": 18.0835005
  },
  {
    "id": 4187,
    "title": "Silent Disco",
    "address": "Ã–stermalms IP, SÃ¶dra FiskartorpsvÃ¤gen 2",
    "lat": 59.3475194,
    "lon": 18.0835005
  },
  {
    "id": 4267,
    "title": "Dj Leo.B @TrÃ¤dgÃ¥rden/Popkyrkan",
    "address": "Hammarby SlussvÃ¤g 2",
    "lat": 59.3042873,
    "lon": 18.0786598
  },
  {
    "id": 4293,
    "title": "Prideparaden",
    "address": "Bolindersplan 1",
    "lat": 59.32915380000001,
    "lon": 18.0523313
  },
  {
    "id": 4154,
    "title": "Pride pÃ¥ SjÃ¶historiska",
    "address": ""
  },
  {
    "id": 4024,
    "title": "ParadmÃ¤ssa ",
    "address": "Kaplansbacken 1",
    "lat": 59.328763,
    "lon": 18.0486524
  },
  {
    "id": 4240,
    "title": "UtstÃ¤llning: I utsÃ¶kt sÃ¤llskap",
    "address": "Hamngatan 4",
    "lat": 59.33324139999999,
    "lon": 18.0744841
  },
  {
    "id": 4022,
    "title": "RegnbÃ¥gscafÃ©",
    "address": "Kaplansbacken 1",
    "lat": 59.328763,
    "lon": 18.0486524
  },
  {
    "id": 116,
    "title": "Pride Parade",
    "address": "112 21 Stockholm",
    "lat": 59.32820659999999,
    "lon": 18.0430189
  },
  {
    "id": 4221,
    "title": " Sista minuten plakat-fix",
    "address": " Sergels Torg, 111 57 Stockholm",
    "lat": 59.3323564,
    "lon": 18.0652907
  },
  {
    "id": 4239,
    "title": "KonstnÃ¤r Astrid WrangÃ¶",
    "address": "Ã–stermalms IP, SÃ¶dra FiskartorpsvÃ¤gen 2",
    "lat": 59.3475194,
    "lon": 18.0835005
  },
  {
    "id": 3997,
    "title": "KonstnÃ¤r Emelie Svartenmark",
    "address": "Ã–stermalms IP, SÃ¶dra FiskartorpsvÃ¤gen 2",
    "lat": 59.3475194,
    "lon": 18.0835005
  },
  {
    "id": 4081,
    "title": "KonstnÃ¤r Hanna Wendeler",
    "address": "Ã–stermalms IP, SÃ¶dra FiskartorpsvÃ¤gen 2",
    "lat": 59.3475194,
    "lon": 18.0835005
  },
  {
    "id": 4077,
    "title": "KonstnÃ¤r Jaymie Stellmar-Wright",
    "address": "Ã–stermalms IP, SÃ¶dra FiskartorpsvÃ¤gen 2",
    "lat": 59.3475194,
    "lon": 18.0835005
  },
  {
    "id": 3990,
    "title": "KonstnÃ¤r Jonas Augustsson",
    "address": "Ã–stermalms IP, SÃ¶dra FiskartorpsvÃ¤gen 2",
    "lat": 59.3475194,
    "lon": 18.0835005
  },
  {
    "id": 3996,
    "title": "KonstnÃ¤r Katarina Thomassen",
    "address": "Ã–stermalms IP, SÃ¶dra FiskartorpsvÃ¤gen 2",
    "lat": 59.3475194,
    "lon": 18.0835005
  },
  {
    "id": 4079,
    "title": "KonstnÃ¤r LinnÃ©a Johnsson",
    "address": "Ã–stermalms IP, SÃ¶dra FiskartorpsvÃ¤gen 2",
    "lat": 59.3475194,
    "lon": 18.0835005
  },
  {
    "id": 4080,
    "title": "KonstnÃ¤r Lotta Tamba",
    "address": "Ã–stermalms IP, SÃ¶dra FiskartorpsvÃ¤gen 2",
    "lat": 59.3475194,
    "lon": 18.0835005
  },
  {
    "id": 3988,
    "title": "KonstnÃ¤r Mikael da Silva Eriksson",
    "address": "Ã–stermalms IP, SÃ¶dra FiskartorpsvÃ¤gen 2",
    "lat": 59.3475194,
    "lon": 18.0835005
  },
  {
    "id": 4078,
    "title": "KonstnÃ¤r My Olsson",
    "address": "Ã–stermalms IP, SÃ¶dra FiskartorpsvÃ¤gen 2",
    "lat": 59.3475194,
    "lon": 18.0835005
  },
  {
    "id": 3989,
    "title": "KonstnÃ¤r Phil of Sweden / Filip Lundberg",
    "address": "Ã–stermalms IP, SÃ¶dra FiskartorpsvÃ¤gen 2",
    "lat": 59.3475194,
    "lon": 18.0835005
  },
  {
    "id": 3987,
    "title": "KonstnÃ¤r Richard Klarby",
    "address": "Ã–stermalms IP, SÃ¶dra FiskartorpsvÃ¤gen 2",
    "lat": 59.3475194,
    "lon": 18.0835005
  },
  {
    "id": 4154,
    "title": "Pride pÃ¥ SjÃ¶historiska",
    "address": ""
  },
  {
    "id": 3992,
    "title": "KonstnÃ¤r Magnus Johansson",
    "address": "Ã–stermalms IP, SÃ¶dra FiskartorpsvÃ¤gen 2",
    "lat": 59.3475194,
    "lon": 18.0835005
  },
  {
    "id": 3994,
    "title": "KonstnÃ¤r Ronja HÃ¥llsten",
    "address": "Ã–stermalms IP, SÃ¶dra FiskartorpsvÃ¤gen 2",
    "lat": 59.3475194,
    "lon": 18.0835005
  },
  {
    "id": 3991,
    "title": "KonstnÃ¤r YlvaMaria Thompson",
    "address": "Ã–stermalms IP, SÃ¶dra FiskartorpsvÃ¤gen 2",
    "lat": 59.3475194,
    "lon": 18.0835005
  },
  {
    "id": 4296,
    "title": "Strike a pose â€“ fÃ¥nga din Pride-look!",
    "address": "Ã–stermalms IP, SÃ¶dra FiskartorpsvÃ¤gen 2",
    "lat": 59.3475194,
    "lon": 18.0835005
  },
  {
    "id": 4154,
    "title": "Pride pÃ¥ SjÃ¶historiska",
    "address": ""
  },
  {
    "id": 4241,
    "title": "Temavisning: Under ytan vid sekelskiftet 1900",
    "address": "Hamngatan 4",
    "lat": 59.33324139999999,
    "lon": 18.0744841
  },
  {
    "id": 4162,
    "title": "Prova pÃ¥- Rep",
    "address": "Ã–stermalms IP, SÃ¶dra FiskartorpsvÃ¤gen 2",
    "lat": 59.3475194,
    "lon": 18.0835005
  },
  {
    "id": 4202,
    "title": "RegnbÃ¥gsbaren med Stockholms BrÃ¤nneri",
    "address": "HerserudsvÃ¤gen 22, LidingÃ¶",
    "lat": 59.3600557,
    "lon": 18.1205675
  },
  {
    "id": 4002,
    "title": "ðŸŒˆPride Youth i ParkenðŸŒˆ",
    "address": "Ã–stermalms IP, SÃ¶dra FiskartorpsvÃ¤gen 2",
    "lat": 59.3475194,
    "lon": 18.0835005
  },
  {
    "id": 4231,
    "title": "Smiskskola",
    "address": "Ã–stermalms IP, SÃ¶dra FiskartorpsvÃ¤gen 2",
    "lat": 59.3475194,
    "lon": 18.0835005
  },
  {
    "id": 4174,
    "title": "Tack fÃ¶r i Ã¥r â€“ En hyllning till alla vÃ¥ra volontÃ¤rer",
    "address": "Ã–stermalms IP, SÃ¶dra FiskartorpsvÃ¤gen 2",
    "lat": 59.3475194,
    "lon": 18.0835005
  },
  {
    "id": 4148,
    "title": " Impact play med Tottis",
    "address": "Ã–stermalms IP, SÃ¶dra FiskartorpsvÃ¤gen 2",
    "lat": 59.3475194,
    "lon": 18.0835005
  },
  {
    "id": 4272,
    "title": "Kattatonika",
    "address": "Ã–stermalms IP, SÃ¶dra FiskartorpsvÃ¤gen 2",
    "lat": 59.3475194,
    "lon": 18.0835005
  },
  {
    "id": 4176,
    "title": "Little Sis Nora",
    "address": "Ã–stermalms IP, SÃ¶dra FiskartorpsvÃ¤gen 2",
    "lat": 59.3475194,
    "lon": 18.0835005
  },
  {
    "id": 4183,
    "title": "Storm Dunder",
    "address": "Ã–stermalms IP, SÃ¶dra FiskartorpsvÃ¤gen 2",
    "lat": 59.3475194,
    "lon": 18.0835005
  },
  {
    "id": 4199,
    "title": "GlamspÃ¤ck",
    "address": "Ã–stermalms IP, SÃ¶dra FiskartorpsvÃ¤gen 2",
    "lat": 59.3475194,
    "lon": 18.0835005
  },
  {
    "id": 4182,
    "title": "Strula med Siri",
    "address": "Ã–stermalms IP, SÃ¶dra FiskartorpsvÃ¤gen 2",
    "lat": 59.3475194,
    "lon": 18.0835005
  },
  {
    "id": 4153,
    "title": "Electroplay",
    "address": "Ã–stermalms IP, SÃ¶dra FiskartorpsvÃ¤gen 2",
    "lat": 59.3475194,
    "lon": 18.0835005
  },
  {
    "id": 4065,
    "title": "CLEAN & BRONX SAUNA in corp. KinkClub, Nachspiel, Berlin Natt Present PRIDE Open Air celebration",
    "address": ""
  },
  {
    "id": 4177,
    "title": "A*Teens",
    "address": "Ã–stermalms IP, SÃ¶dra FiskartorpsvÃ¤gen 2",
    "lat": 59.3475194,
    "lon": 18.0835005
  },
  {
    "id": 4278,
    "title": "Silent Disco - Live DJ",
    "address": "Ã–stermalms IP, SÃ¶dra FiskartorpsvÃ¤gen 2",
    "lat": 59.3475194,
    "lon": 18.0835005
  },
  {
    "id": 4154,
    "title": "Pride pÃ¥ SjÃ¶historiska",
    "address": ""
  },
  {
    "id": 4062,
    "title": "RegnbÃ¥gsmÃ¤ssa",
    "address": "Gamla vÃ¤rmdÃ¶vÃ¤gen 14b",
    "lat": 59.30754409999999,
    "lon": 18.1405949
  },
  {
    "id": 4240,
    "title": "UtstÃ¤llning: I utsÃ¶kt sÃ¤llskap",
    "address": "Hamngatan 4",
    "lat": 59.33324139999999,
    "lon": 18.0744841
  },
  {
    "id": 4154,
    "title": "Pride pÃ¥ SjÃ¶historiska",
    "address": ""
  },
  {
    "id": 4154,
    "title": "Pride pÃ¥ SjÃ¶historiska",
    "address": ""
  },
  {
    "id": 4242,
    "title": "Stadsvandring: Klotter och queera mÃ¶tesplatser",
    "address": "Hamngatan 4",
    "lat": 59.33324139999999,
    "lon": 18.0744841
  },
  {
    "id": 4064,
    "title": "KÃ¤rlekens mÃ¤ssa ",
    "address": "TrÃ¥ngsund 1",
    "lat": 59.325733,
    "lon": 18.0703894
  },
  {
    "id": 4014,
    "title": "Pride i ord och toner: Duo Kleynkunst",
    "address": "SjÃ¶vikskajen 36â€“42",
    "lat": 59.3065702,
    "lon": 18.0338796
  }
]
